[{"id":"us6000kcsh","Magnituud":4.3,"Place":"11 km WSW of Pucara","Fecha":1684408298865,"Ultimo registro":1684411380040,"Felt":null,"cdi":null,"mmi":null,"Posibilidad tsunami":0,"Importancia del evento":284,"Ids":",us6000kcsh,","nst":31.0,"Distancia Horizontal Epicentro":2.544,"RMS":1.32,"Brecha Azimutal":126.0,"Pais":"Peru","Longitud":-71.5665,"Latitud":-16.0072,"Profundidad":131.861},{"id":"us6000kcfu","Magnituud":4.0,"Place":"9 km WNW of Ayo","Fecha":1684289721181,"Ultimo registro":1684377795040,"Felt":null,"cdi":null,"mmi":null,"Posibilidad tsunami":0,"Importancia del evento":246,"Ids":",us6000kcfu,","nst":17.0,"Distancia Horizontal Epicentro":3.32,"RMS":0.66,"Brecha Azimutal":154.0,"Pais":"Peru","Longitud":-72.3568,"Latitud":-15.6528,"Profundidad":8.284},{"id":"us6000kbqc","Magnituud":4.5,"Place":"6 km NW of Paj\u00e1n","Fecha":1684004377115,"Ultimo registro":1684005752040,"Felt":null,"cdi":null,"mmi":null,"Posibilidad tsunami":0,"Importancia del evento":312,"Ids":",us6000kbqc,","nst":69.0,"Distancia Horizontal Epicentro":1.301,"RMS":0.9,"Brecha Azimutal":150.0,"Pais":"Ecuador","Longitud":-80.4691,"Latitud":-1.5056,"Profundidad":43.612},{"id":"us6000kbcv","Magnituud":4.5,"Place":"36 km NW of El Cardo","Fecha":1683882523176,"Ultimo registro":1684484511040,"Felt":null,"cdi":null,"mmi":null,"Posibilidad tsunami":0,"Importancia del evento":312,"Ids":",us6000kbcv,","nst":90.0,"Distancia Horizontal Epicentro":3.204,"RMS":0.46,"Brecha Azimutal":140.0,"Pais":"Peru","Longitud":-72.9886,"Latitud":-16.3897,"Profundidad":67.82},{"id":"us6000kbad","Magnituud":4.3,"Place":"31 km NE of Palca","Fecha":1683854607800,"Ultimo registro":1683856356040,"Felt":null,"cdi":null,"mmi":null,"Posibilidad tsunami":0,"Importancia del evento":284,"Ids":",us6000kbad,","nst":14.0,"Distancia Horizontal Epicentro":0.231,"RMS":0.45,"Brecha Azimutal":115.0,"Pais":"Peru","Longitud":-69.721,"Latitud":-17.6075,"Profundidad":163.176},{"id":"us6000kaam","Magnituud":5.2,"Place":"8 km W of Azogues","Fecha":1683507115846,"Ultimo registro":1683606904934,"Felt":23.0,"cdi":4.6,"mmi":null,"Posibilidad tsunami":0,"Importancia del evento":427,"Ids":",us6000kaam,","nst":113.0,"Distancia Horizontal Epicentro":1.25,"RMS":0.58,"Brecha Azimutal":39.0,"Pais":"Ecuador","Longitud":-78.9266,"Latitud":-2.7512,"Profundidad":89.603},{"id":"us6000ka4m","Magnituud":4.2,"Place":"southern Peru","Fecha":1683423690895,"Ultimo registro":1683425308040,"Felt":null,"cdi":null,"mmi":null,"Posibilidad tsunami":0,"Importancia del evento":271,"Ids":",us6000ka4m,","nst":24.0,"Distancia Horizontal Epicentro":2.398,"RMS":1.05,"Brecha Azimutal":143.0,"Pais":null,"Longitud":-70.7804,"Latitud":-15.5297,"Profundidad":198.662},{"id":"us7000jxn0","Magnituud":5.0,"Place":"36 km NW of El Cardo","Fecha":1683079871818,"Ultimo registro":1683157172040,"Felt":null,"cdi":null,"mmi":null,"Posibilidad tsunami":0,"Importancia del evento":385,"Ids":",us7000jxn0,","nst":54.0,"Distancia Horizontal Epicentro":3.2,"RMS":0.6,"Brecha Azimutal":97.0,"Pais":"Peru","Longitud":-72.9786,"Latitud":-16.3846,"Profundidad":65.296},{"id":"us7000jxi3","Magnituud":4.5,"Place":null,"Fecha":1683040319222,"Ultimo registro":1683665048040,"Felt":null,"cdi":null,"mmi":null,"Posibilidad tsunami":0,"Importancia del evento":312,"Ids":",us7000jxi3,","nst":57.0,"Distancia Horizontal Epicentro":1.917,"RMS":0.87,"Brecha Azimutal":65.0,"Pais":null,"Longitud":-74.4185,"Latitud":-8.6296,"Profundidad":156.906},{"id":"us7000jxf9","Magnituud":4.2,"Place":"1 km ESE of Tarata","Fecha":1682984646883,"Ultimo registro":1683862506040,"Felt":null,"cdi":null,"mmi":null,"Posibilidad tsunami":0,"Importancia del evento":271,"Ids":",us7000jxf9,","nst":15.0,"Distancia Horizontal Epicentro":0.525,"RMS":0.18,"Brecha Azimutal":217.0,"Pais":"Peru","Longitud":-70.0185,"Latitud":-17.4791,"Profundidad":163.609},{"id":"us7000jxbl","Magnituud":5.2,"Place":"45 km E of Contamana","Fecha":1682933469421,"Ultimo registro":1682936850542,"Felt":2.0,"cdi":2.0,"mmi":null,"Posibilidad tsunami":0,"Importancia del evento":416,"Ids":",us7000jxbl,","nst":79.0,"Distancia Horizontal Epicentro":1.919,"RMS":1.01,"Brecha Azimutal":86.0,"Pais":"Peru","Longitud":-74.6079,"Latitud":-7.378,"Profundidad":12.758},{"id":"us7000jxb5","Magnituud":4.6,"Place":"Near the coast of southern Peru","Fecha":1682922512592,"Ultimo registro":1682968354108,"Felt":1.0,"cdi":2.9,"mmi":null,"Posibilidad tsunami":0,"Importancia del evento":326,"Ids":",us7000jxb5,","nst":45.0,"Distancia Horizontal Epicentro":3.495,"RMS":0.42,"Brecha Azimutal":144.0,"Pais":null,"Longitud":-73.1995,"Latitud":-16.1769,"Profundidad":77.32},{"id":"us7000jxax","Magnituud":4.9,"Place":"near the coast of northern Peru","Fecha":1682918292647,"Ultimo registro":1682968469431,"Felt":1.0,"cdi":3.4,"mmi":null,"Posibilidad tsunami":0,"Importancia del evento":370,"Ids":",us7000jxax,","nst":58.0,"Distancia Horizontal Epicentro":2.879,"RMS":0.98,"Brecha Azimutal":135.0,"Pais":null,"Longitud":-81.3831,"Latitud":-6.1282,"Profundidad":18.864},{"id":"us7000jx3g","Magnituud":4.4,"Place":"near the coast of northern Peru","Fecha":1682825632975,"Ultimo registro":1682826844040,"Felt":null,"cdi":null,"mmi":null,"Posibilidad tsunami":0,"Importancia del evento":298,"Ids":",us7000jx3g,","nst":19.0,"Distancia Horizontal Epicentro":1.716,"RMS":0.76,"Brecha Azimutal":162.0,"Pais":null,"Longitud":-80.9542,"Latitud":-5.0276,"Profundidad":31.083},{"id":"us7000jwfs","Magnituud":4.3,"Place":"2 km SSW of Huanuara","Fecha":1682641706805,"Ultimo registro":1683261816040,"Felt":null,"cdi":null,"mmi":null,"Posibilidad tsunami":0,"Importancia del evento":284,"Ids":",us7000jwfs,","nst":25.0,"Distancia Horizontal Epicentro":0.85,"RMS":0.57,"Brecha Azimutal":148.0,"Pais":"Peru","Longitud":-70.3293,"Latitud":-17.3322,"Profundidad":170.951},{"id":"us7000jvvv","Magnituud":4.1,"Place":"53 km E of Palca","Fecha":1682455679326,"Ultimo registro":1682520285040,"Felt":null,"cdi":null,"mmi":null,"Posibilidad tsunami":0,"Importancia del evento":259,"Ids":",us7000jvvv,","nst":16.0,"Distancia Horizontal Epicentro":0.113,"RMS":0.84,"Brecha Azimutal":121.0,"Pais":"Peru","Longitud":-69.4657,"Latitud":-17.7024,"Profundidad":160.446},{"id":"us7000jvqd","Magnituud":5.2,"Place":"10 km NNW of Bal\u00e1o","Fecha":1682400960112,"Ultimo registro":1683273148169,"Felt":25.0,"cdi":3.8,"mmi":null,"Posibilidad tsunami":0,"Importancia del evento":426,"Ids":",us7000jvqd,","nst":95.0,"Distancia Horizontal Epicentro":0.756,"RMS":0.72,"Brecha Azimutal":83.0,"Pais":"Ecuador","Longitud":-79.8374,"Latitud":-2.8231,"Profundidad":68.886},{"id":"us6000k68a","Magnituud":5.0,"Place":"78 km WSW of Barranca","Fecha":1682118641073,"Ultimo registro":1682830335223,"Felt":1.0,"cdi":3.1,"mmi":null,"Posibilidad tsunami":0,"Importancia del evento":385,"Ids":",us6000k68a,","nst":170.0,"Distancia Horizontal Epicentro":3.111,"RMS":0.55,"Brecha Azimutal":73.0,"Pais":"Peru","Longitud":-77.3435,"Latitud":-5.0757,"Profundidad":39.421},{"id":"us7000jwbb","Magnituud":4.5,"Place":"60 km SE of Contamana","Fecha":1682050683749,"Ultimo registro":1682630372040,"Felt":null,"cdi":null,"mmi":null,"Posibilidad tsunami":0,"Importancia del evento":312,"Ids":",us7000jwbb,","nst":12.0,"Distancia Horizontal Epicentro":1.94,"RMS":0.92,"Brecha Azimutal":100.0,"Pais":"Peru","Longitud":-74.6623,"Latitud":-7.7514,"Profundidad":158.919},{"id":"us6000k4t8","Magnituud":4.3,"Place":null,"Fecha":1681598548384,"Ultimo registro":1681600785040,"Felt":null,"cdi":null,"mmi":null,"Posibilidad tsunami":0,"Importancia del evento":284,"Ids":",us6000k4t8,","nst":23.0,"Distancia Horizontal Epicentro":5.074,"RMS":0.71,"Brecha Azimutal":198.0,"Pais":null,"Longitud":-83.2274,"Latitud":-7.5563,"Profundidad":10.0},{"id":"us6000k5zr","Magnituud":4.5,"Place":"88 km WSW of San Vicente de Ca\u00f1ete","Fecha":1681562116859,"Ultimo registro":1683723928040,"Felt":null,"cdi":null,"mmi":null,"Posibilidad tsunami":0,"Importancia del evento":312,"Ids":",us6000k5zr,","nst":28.0,"Distancia Horizontal Epicentro":1.51,"RMS":0.38,"Brecha Azimutal":102.0,"Pais":"Peru","Longitud":-77.0904,"Latitud":-13.4785,"Profundidad":21.348},{"id":"us6000k3gz","Magnituud":4.4,"Place":"37 km W of Zorritos","Fecha":1681209500367,"Ultimo registro":1683784495040,"Felt":null,"cdi":null,"mmi":null,"Posibilidad tsunami":0,"Importancia del evento":298,"Ids":",us6000k3gz,","nst":31.0,"Distancia Horizontal Epicentro":0.955,"RMS":0.72,"Brecha Azimutal":160.0,"Pais":"Peru","Longitud":-81.0133,"Latitud":-3.6899,"Profundidad":10.0},{"id":"us6000k37y","Magnituud":4.3,"Place":"9 km SE of Umamarca","Fecha":1681102460941,"Ultimo registro":1683601708040,"Felt":null,"cdi":null,"mmi":null,"Posibilidad tsunami":0,"Importancia del evento":284,"Ids":",us6000k37y,","nst":39.0,"Distancia Horizontal Epicentro":3.877,"RMS":1.0,"Brecha Azimutal":122.0,"Pais":"Peru","Longitud":-73.5049,"Latitud":-14.111,"Profundidad":81.174},{"id":"us6000k2xf","Magnituud":4.2,"Place":"22 km E of Palca","Fecha":1680996992751,"Ultimo registro":1682134320040,"Felt":null,"cdi":null,"mmi":null,"Posibilidad tsunami":0,"Importancia del evento":271,"Ids":",us6000k2xf,","nst":18.0,"Distancia Horizontal Epicentro":0.339,"RMS":0.68,"Brecha Azimutal":123.0,"Pais":"Peru","Longitud":-69.7472,"Latitud":-17.814,"Profundidad":165.823},{"id":"us6000k43j","Magnituud":4.4,"Place":"154 km SW of Pacasmayo","Fecha":1680861801270,"Ultimo registro":1684308997040,"Felt":null,"cdi":null,"mmi":null,"Posibilidad tsunami":0,"Importancia del evento":298,"Ids":",us6000k43j,","nst":28.0,"Distancia Horizontal Epicentro":4.781,"RMS":0.76,"Brecha Azimutal":127.0,"Pais":"Peru","Longitud":-80.6133,"Latitud":-8.329,"Profundidad":14.644},{"id":"us6000k270","Magnituud":4.4,"Place":"9 km NE of Ayo","Fecha":1680718657841,"Ultimo registro":1683213381040,"Felt":null,"cdi":null,"mmi":null,"Posibilidad tsunami":0,"Importancia del evento":298,"Ids":",us6000k270,","nst":52.0,"Distancia Horizontal Epicentro":3.259,"RMS":0.61,"Brecha Azimutal":128.0,"Pais":"Peru","Longitud":-72.2058,"Latitud":-15.6281,"Profundidad":10.0},{"id":"us6000k24y","Magnituud":4.6,"Place":"76 km N of Lagunas","Fecha":1680693903931,"Ultimo registro":1681901124040,"Felt":null,"cdi":null,"mmi":null,"Posibilidad tsunami":0,"Importancia del evento":326,"Ids":",us6000k24y,","nst":53.0,"Distancia Horizontal Epicentro":3.902,"RMS":0.69,"Brecha Azimutal":108.0,"Pais":"Peru","Longitud":-75.5598,"Latitud":-4.5409,"Profundidad":11.162},{"id":"us6000k22u","Magnituud":5.1,"Place":null,"Fecha":1680675569085,"Ultimo registro":1681368330040,"Felt":null,"cdi":null,"mmi":null,"Posibilidad tsunami":0,"Importancia del evento":400,"Ids":",us6000k22u,","nst":128.0,"Distancia Horizontal Epicentro":2.08,"RMS":0.63,"Brecha Azimutal":36.0,"Pais":null,"Longitud":-71.44,"Latitud":-9.4023,"Profundidad":560.074},{"id":"us6000k1xe","Magnituud":4.8,"Place":"86 km ENE of Alianza Cristiana","Fecha":1680615324352,"Ultimo registro":1681848264040,"Felt":null,"cdi":null,"mmi":null,"Posibilidad tsunami":0,"Importancia del evento":354,"Ids":",us6000k1xe,","nst":125.0,"Distancia Horizontal Epicentro":2.807,"RMS":0.89,"Brecha Azimutal":58.0,"Pais":"Peru","Longitud":-75.7336,"Latitud":-3.1276,"Profundidad":133.059},{"id":"us6000k1pj","Magnituud":4.3,"Place":"43 km ESE of Tingo Mar\u00eda","Fecha":1680527603018,"Ultimo registro":1681842735040,"Felt":null,"cdi":null,"mmi":null,"Posibilidad tsunami":0,"Importancia del evento":284,"Ids":",us6000k1pj,","nst":18.0,"Distancia Horizontal Epicentro":2.786,"RMS":0.61,"Brecha Azimutal":117.0,"Pais":"Peru","Longitud":-75.6364,"Latitud":-9.4506,"Profundidad":14.611},{"id":"us6000k1hb","Magnituud":4.5,"Place":"35 km ENE of Palora","Fecha":1680438762774,"Ultimo registro":1682055519040,"Felt":null,"cdi":null,"mmi":null,"Posibilidad tsunami":0,"Importancia del evento":312,"Ids":",us6000k1hb,","nst":77.0,"Distancia Horizontal Epicentro":0.386,"RMS":0.54,"Brecha Azimutal":83.0,"Pais":"Ecuador","Longitud":-77.6591,"Latitud":-1.6175,"Profundidad":177.187},{"id":"us6000k1cb","Magnituud":4.7,"Place":null,"Fecha":1680351980937,"Ultimo registro":1682495199040,"Felt":null,"cdi":null,"mmi":null,"Posibilidad tsunami":0,"Importancia del evento":340,"Ids":",us6000k1cb,","nst":50.0,"Distancia Horizontal Epicentro":2.276,"RMS":0.75,"Brecha Azimutal":114.0,"Pais":null,"Longitud":-70.3131,"Latitud":-15.4073,"Profundidad":213.334},{"id":"us6000k1bt","Magnituud":4.4,"Place":"Peru-Bolivia border region","Fecha":1680341576753,"Ultimo registro":1682251147040,"Felt":null,"cdi":null,"mmi":null,"Posibilidad tsunami":0,"Importancia del evento":298,"Ids":",us6000k1bt,","nst":28.0,"Distancia Horizontal Epicentro":0.954,"RMS":0.61,"Brecha Azimutal":105.0,"Pais":null,"Longitud":-69.7595,"Latitud":-16.6688,"Profundidad":182.087},{"id":"us6000k0hu","Magnituud":4.6,"Place":"22 km SW of Sacsamarca","Fecha":1680071938556,"Ultimo registro":1682599180114,"Felt":1.0,"cdi":2.0,"mmi":null,"Posibilidad tsunami":0,"Importancia del evento":326,"Ids":",us6000k0hu,","nst":64.0,"Distancia Horizontal Epicentro":3.083,"RMS":0.87,"Brecha Azimutal":90.0,"Pais":"Peru","Longitud":-74.4879,"Latitud":-14.0592,"Profundidad":92.18},{"id":"us6000k04g","Magnituud":4.5,"Place":"45 km NE of Santa Rosa","Fecha":1679947994239,"Ultimo registro":1682518285040,"Felt":null,"cdi":null,"mmi":null,"Posibilidad tsunami":0,"Importancia del evento":312,"Ids":",us6000k04g,","nst":49.0,"Distancia Horizontal Epicentro":2.574,"RMS":0.94,"Brecha Azimutal":74.0,"Pais":"Peru","Longitud":-74.6239,"Latitud":-10.6029,"Profundidad":123.341},{"id":"us7000jmx3","Magnituud":4.4,"Place":"84 km SSW of Atiquipa","Fecha":1679869030652,"Ultimo registro":1683058529040,"Felt":null,"cdi":null,"mmi":null,"Posibilidad tsunami":0,"Importancia del evento":298,"Ids":",us7000jmx3,","nst":20.0,"Distancia Horizontal Epicentro":4.428,"RMS":0.47,"Brecha Azimutal":148.0,"Pais":"Peru","Longitud":-74.5664,"Latitud":-16.5308,"Profundidad":10.0},{"id":"us7000jmpt","Magnituud":4.3,"Place":"198 km SSW of Atico","Fecha":1679761631886,"Ultimo registro":1682800118040,"Felt":null,"cdi":null,"mmi":null,"Posibilidad tsunami":0,"Importancia del evento":284,"Ids":",us7000jmpt,","nst":20.0,"Distancia Horizontal Epicentro":3.855,"RMS":0.68,"Brecha Azimutal":155.0,"Pais":"Peru","Longitud":-74.3595,"Latitud":-17.8535,"Profundidad":34.886},{"id":"us7000jm4e","Magnituud":4.2,"Place":"104 km WSW of Atiquipa","Fecha":1679551703059,"Ultimo registro":1681470924040,"Felt":null,"cdi":null,"mmi":null,"Posibilidad tsunami":0,"Importancia del evento":271,"Ids":",us7000jm4e,","nst":16.0,"Distancia Horizontal Epicentro":4.601,"RMS":0.27,"Brecha Azimutal":167.0,"Pais":"Peru","Longitud":-75.1779,"Latitud":-16.3222,"Profundidad":10.0},{"id":"us7000jlxd","Magnituud":4.5,"Place":"central Peru","Fecha":1679492706311,"Ultimo registro":1680086089040,"Felt":null,"cdi":null,"mmi":null,"Posibilidad tsunami":0,"Importancia del evento":312,"Ids":",us7000jlxd,","nst":70.0,"Distancia Horizontal Epicentro":3.724,"RMS":0.46,"Brecha Azimutal":142.0,"Pais":null,"Longitud":-73.2035,"Latitud":-11.4451,"Profundidad":10.0},{"id":"us7000jlk9","Magnituud":4.1,"Place":"Off the coast of Tarapaca","Fecha":1679361891219,"Ultimo registro":1681681025040,"Felt":null,"cdi":null,"mmi":null,"Posibilidad tsunami":0,"Importancia del evento":259,"Ids":",us7000jlk9,","nst":35.0,"Distancia Horizontal Epicentro":0.915,"RMS":0.69,"Brecha Azimutal":134.0,"Pais":"Chile","Longitud":-71.2929,"Latitud":-18.2272,"Profundidad":37.083},{"id":"us7000jlhj","Magnituud":4.4,"Place":null,"Fecha":1679338864015,"Ultimo registro":1681936220040,"Felt":null,"cdi":null,"mmi":null,"Posibilidad tsunami":0,"Importancia del evento":298,"Ids":",us7000jlhj,","nst":36.0,"Distancia Horizontal Epicentro":4.753,"RMS":1.19,"Brecha Azimutal":112.0,"Pais":null,"Longitud":-74.2812,"Latitud":-16.063,"Profundidad":35.0},{"id":"us7000jlf6","Magnituud":4.3,"Place":"Near the coast of Tarapaca","Fecha":1679319594492,"Ultimo registro":1680016000040,"Felt":null,"cdi":null,"mmi":null,"Posibilidad tsunami":0,"Importancia del evento":284,"Ids":",us7000jlf6,","nst":35.0,"Distancia Horizontal Epicentro":0.155,"RMS":0.59,"Brecha Azimutal":142.0,"Pais":"Chile","Longitud":-70.4781,"Latitud":-18.2849,"Profundidad":79.629},{"id":"us7000jl3s","Magnituud":6.8,"Place":"near the coast of Ecuador","Fecha":1679159572481,"Ultimo registro":1681943416287,"Felt":193.0,"cdi":8.6,"mmi":6.932,"Posibilidad tsunami":1,"Importancia del evento":877,"Ids":",pt23077000,us7000jl3s,usauto7000jl3s,","nst":308.0,"Distancia Horizontal Epicentro":0.664,"RMS":0.92,"Brecha Azimutal":23.0,"Pais":null,"Longitud":-79.8518,"Latitud":-2.7834,"Profundidad":68.0},{"id":"us7000jl0l","Magnituud":4.4,"Place":"122 km NE of Puerto Ocopa","Fecha":1679110907202,"Ultimo registro":1681862444040,"Felt":null,"cdi":null,"mmi":null,"Posibilidad tsunami":0,"Importancia del evento":298,"Ids":",us7000jl0l,","nst":24.0,"Distancia Horizontal Epicentro":2.668,"RMS":0.5,"Brecha Azimutal":111.0,"Pais":"Peru","Longitud":-73.6782,"Latitud":-10.2347,"Profundidad":60.86},{"id":"us7000jkyh","Magnituud":4.3,"Place":"51 km NNW of Bah\u00eda de Car\u00e1quez","Fecha":1679080763934,"Ultimo registro":1681323267040,"Felt":null,"cdi":null,"mmi":null,"Posibilidad tsunami":0,"Importancia del evento":284,"Ids":",us7000jkyh,","nst":36.0,"Distancia Horizontal Epicentro":0.824,"RMS":0.94,"Brecha Azimutal":138.0,"Pais":"Ecuador","Longitud":-80.651,"Latitud":-0.1877,"Profundidad":18.564},{"id":"us7000jks0","Magnituud":4.3,"Place":"29 km E of Yuyapichis","Fecha":1679042785232,"Ultimo registro":1681881330040,"Felt":null,"cdi":null,"mmi":null,"Posibilidad tsunami":0,"Importancia del evento":284,"Ids":",us7000jks0,","nst":14.0,"Distancia Horizontal Epicentro":3.109,"RMS":0.99,"Brecha Azimutal":96.0,"Pais":"Peru","Longitud":-74.709,"Latitud":-9.6758,"Profundidad":123.962},{"id":"us7000jkrt","Magnituud":4.2,"Place":"91 km S of Pacocha","Fecha":1679040423258,"Ultimo registro":1680245423040,"Felt":null,"cdi":null,"mmi":null,"Posibilidad tsunami":0,"Importancia del evento":271,"Ids":",us7000jkrt,","nst":15.0,"Distancia Horizontal Epicentro":0.932,"RMS":1.17,"Brecha Azimutal":138.0,"Pais":"Peru","Longitud":-71.3185,"Latitud":-18.4702,"Profundidad":27.319},{"id":"us7000jjxc","Magnituud":4.5,"Place":"Peru-Bolivia border region","Fecha":1678827344209,"Ultimo registro":1680988342040,"Felt":null,"cdi":null,"mmi":null,"Posibilidad tsunami":0,"Importancia del evento":312,"Ids":",us7000jjxc,","nst":76.0,"Distancia Horizontal Epicentro":0.068,"RMS":0.68,"Brecha Azimutal":96.0,"Pais":null,"Longitud":-69.4513,"Latitud":-17.5274,"Profundidad":169.435},{"id":"us7000jjr6","Magnituud":4.4,"Place":"77 km WNW of San Juan","Fecha":1678768175553,"Ultimo registro":1681865796040,"Felt":null,"cdi":null,"mmi":null,"Posibilidad tsunami":0,"Importancia del evento":298,"Ids":",us7000jjr6,","nst":29.0,"Distancia Horizontal Epicentro":3.304,"RMS":0.85,"Brecha Azimutal":143.0,"Pais":"Peru","Longitud":-75.849,"Latitud":-15.1657,"Profundidad":10.0},{"id":"us7000jjll","Magnituud":4.9,"Place":"22 km SW of Chipispaya","Fecha":1678735155151,"Ultimo registro":1681914244040,"Felt":7.0,"cdi":5.0,"mmi":null,"Posibilidad tsunami":0,"Importancia del evento":373,"Ids":",us7000jjll,","nst":77.0,"Distancia Horizontal Epicentro":0.748,"RMS":0.74,"Brecha Azimutal":72.0,"Pais":"Peru","Longitud":-70.3845,"Latitud":-17.6195,"Profundidad":97.615},{"id":"us7000jjjf","Magnituud":4.5,"Place":"84 km WNW of San Juan","Fecha":1678719400179,"Ultimo registro":1679602347040,"Felt":null,"cdi":null,"mmi":null,"Posibilidad tsunami":0,"Importancia del evento":312,"Ids":",us7000jjjf,","nst":39.0,"Distancia Horizontal Epicentro":3.256,"RMS":0.82,"Brecha Azimutal":107.0,"Pais":"Peru","Longitud":-75.9107,"Latitud":-15.1338,"Profundidad":10.0},{"id":"us7000jjgg","Magnituud":4.6,"Place":"42 km SSW of Alianza Cristiana","Fecha":1678677109705,"Ultimo registro":1682291975040,"Felt":null,"cdi":null,"mmi":null,"Posibilidad tsunami":0,"Importancia del evento":326,"Ids":",us7000jjgg,","nst":157.0,"Distancia Horizontal Epicentro":2.717,"RMS":0.64,"Brecha Azimutal":35.0,"Pais":"Peru","Longitud":-76.5998,"Latitud":-3.8227,"Profundidad":111.925},{"id":"us7000jjd9","Magnituud":4.5,"Place":"119 km WSW of Puerto Casma","Fecha":1678645787390,"Ultimo registro":1679247152040,"Felt":null,"cdi":null,"mmi":null,"Posibilidad tsunami":0,"Importancia del evento":312,"Ids":",us7000jjd9,","nst":38.0,"Distancia Horizontal Epicentro":3.074,"RMS":0.77,"Brecha Azimutal":107.0,"Pais":"Peru","Longitud":-79.2898,"Latitud":-10.0589,"Profundidad":28.478},{"id":"us7000jj43","Magnituud":4.2,"Place":"14 km S of Incuyo","Fecha":1678529155625,"Ultimo registro":1684118953040,"Felt":null,"cdi":null,"mmi":null,"Posibilidad tsunami":0,"Importancia del evento":271,"Ids":",us7000jj43,","nst":23.0,"Distancia Horizontal Epicentro":4.466,"RMS":0.35,"Brecha Azimutal":163.0,"Pais":"Peru","Longitud":-73.5691,"Latitud":-15.3823,"Profundidad":101.088},{"id":"us7000jiqc","Magnituud":4.9,"Place":"11 km E of San Fernando","Fecha":1678424092230,"Ultimo registro":1684118973040,"Felt":null,"cdi":null,"mmi":null,"Posibilidad tsunami":0,"Importancia del evento":369,"Ids":",us7000jiqc,","nst":73.0,"Distancia Horizontal Epicentro":1.832,"RMS":0.88,"Brecha Azimutal":73.0,"Pais":"Peru","Longitud":-74.4335,"Latitud":-8.3867,"Profundidad":155.525},{"id":"us7000ji6p","Magnituud":4.5,"Place":"1 km NW of Pampa de Tate","Fecha":1678289938271,"Ultimo registro":1684119002040,"Felt":null,"cdi":null,"mmi":null,"Posibilidad tsunami":0,"Importancia del evento":312,"Ids":",us7000ji6p,","nst":56.0,"Distancia Horizontal Epicentro":2.406,"RMS":0.77,"Brecha Azimutal":142.0,"Pais":"Peru","Longitud":-75.7026,"Latitud":-14.1343,"Profundidad":67.26},{"id":"us7000jhlm","Magnituud":4.6,"Place":"19 km WNW of Orcopampa","Fecha":1678095210191,"Ultimo registro":1684119029040,"Felt":null,"cdi":null,"mmi":null,"Posibilidad tsunami":0,"Importancia del evento":326,"Ids":",us7000jhlm,","nst":40.0,"Distancia Horizontal Epicentro":3.759,"RMS":0.76,"Brecha Azimutal":126.0,"Pais":"Peru","Longitud":-72.514,"Latitud":-15.1985,"Profundidad":93.138},{"id":"us7000jhhu","Magnituud":5.1,"Place":"17 km ENE of Atico","Fecha":1678044343817,"Ultimo registro":1684119036040,"Felt":3.0,"cdi":5.5,"mmi":null,"Posibilidad tsunami":0,"Importancia del evento":402,"Ids":",us7000jhhu,","nst":120.0,"Distancia Horizontal Epicentro":3.721,"RMS":0.58,"Brecha Azimutal":90.0,"Pais":"Peru","Longitud":-73.4704,"Latitud":-16.1425,"Profundidad":55.845},{"id":"us7000jhcm","Magnituud":4.4,"Place":"7 km W of Huarichancara","Fecha":1677951802832,"Ultimo registro":1683511247040,"Felt":null,"cdi":null,"mmi":null,"Posibilidad tsunami":0,"Importancia del evento":298,"Ids":",us7000jhcm,","nst":58.0,"Distancia Horizontal Epicentro":2.498,"RMS":1.09,"Brecha Azimutal":138.0,"Pais":"Peru","Longitud":-71.1295,"Latitud":-15.6455,"Profundidad":149.297},{"id":"us7000jitk","Magnituud":4.4,"Place":"21 km E of San Fernando","Fecha":1677922704055,"Ultimo registro":1683511245040,"Felt":null,"cdi":null,"mmi":null,"Posibilidad tsunami":0,"Importancia del evento":298,"Ids":",us7000jitk,","nst":13.0,"Distancia Horizontal Epicentro":1.766,"RMS":0.32,"Brecha Azimutal":135.0,"Pais":"Peru","Longitud":-74.3433,"Latitud":-8.4329,"Profundidad":171.462},{"id":"us7000jh5p","Magnituud":4.6,"Place":"30 km S of Atiquipa","Fecha":1677872258600,"Ultimo registro":1683511239040,"Felt":null,"cdi":null,"mmi":null,"Posibilidad tsunami":0,"Importancia del evento":326,"Ids":",us7000jh5p,","nst":19.0,"Distancia Horizontal Epicentro":4.507,"RMS":0.23,"Brecha Azimutal":141.0,"Pais":"Peru","Longitud":-74.4062,"Latitud":-16.0716,"Profundidad":27.345},{"id":"us7000jgyn","Magnituud":5.3,"Place":"51 km SSW of Quilca","Fecha":1677808406271,"Ultimo registro":1683511231040,"Felt":2.0,"cdi":6.3,"mmi":null,"Posibilidad tsunami":0,"Importancia del evento":433,"Ids":",us7000jgyn,usauto7000jgyn,","nst":74.0,"Distancia Horizontal Epicentro":2.535,"RMS":0.71,"Brecha Azimutal":99.0,"Pais":"Peru","Longitud":-72.6624,"Latitud":-17.1247,"Profundidad":18.572},{"id":"us7000jglx","Magnituud":4.0,"Place":"69 km E of Palca","Fecha":1677688605601,"Ultimo registro":1683511210040,"Felt":null,"cdi":null,"mmi":null,"Posibilidad tsunami":0,"Importancia del evento":246,"Ids":",us7000jglx,","nst":20.0,"Distancia Horizontal Epicentro":0.215,"RMS":0.67,"Brecha Azimutal":74.0,"Pais":"Peru","Longitud":-69.311,"Latitud":-17.732,"Profundidad":153.254},{"id":"us7000ji8c","Magnituud":4.1,"Place":"40 km WSW of Atico","Fecha":1677684181660,"Ultimo registro":1683511210040,"Felt":null,"cdi":null,"mmi":null,"Posibilidad tsunami":0,"Importancia del evento":259,"Ids":",us7000ji8c,","nst":22.0,"Distancia Horizontal Epicentro":3.982,"RMS":0.67,"Brecha Azimutal":153.0,"Pais":"Peru","Longitud":-73.9603,"Latitud":-16.3793,"Profundidad":35.0},{"id":"us7000jgip","Magnituud":4.7,"Place":"191 km SSW of Atico","Fecha":1677658155245,"Ultimo registro":1683511206040,"Felt":null,"cdi":null,"mmi":null,"Posibilidad tsunami":0,"Importancia del evento":340,"Ids":",us7000jgip,","nst":59.0,"Distancia Horizontal Epicentro":4.034,"RMS":1.18,"Brecha Azimutal":148.0,"Pais":"Peru","Longitud":-74.5254,"Latitud":-17.7088,"Profundidad":10.0},{"id":"us7000jg5n","Magnituud":4.1,"Place":"18 km SSW of Pullo","Fecha":1677553121529,"Ultimo registro":1683511190040,"Felt":null,"cdi":null,"mmi":null,"Posibilidad tsunami":0,"Importancia del evento":259,"Ids":",us7000jg5n,","nst":13.0,"Distancia Horizontal Epicentro":4.43,"RMS":0.48,"Brecha Azimutal":150.0,"Pais":"Peru","Longitud":-73.874,"Latitud":-15.3703,"Profundidad":61.283},{"id":"us6000jrwb","Magnituud":4.6,"Place":"near the coast of northern Peru","Fecha":1677488704142,"Ultimo registro":1683511181040,"Felt":null,"cdi":null,"mmi":null,"Posibilidad tsunami":0,"Importancia del evento":326,"Ids":",us6000jrwb,","nst":40.0,"Distancia Horizontal Epicentro":2.254,"RMS":1.12,"Brecha Azimutal":91.0,"Pais":null,"Longitud":-80.8196,"Latitud":-5.6873,"Profundidad":35.0},{"id":"us6000jru0","Magnituud":4.8,"Place":"36 km S of Sechura","Fecha":1677466885650,"Ultimo registro":1683511178040,"Felt":2.0,"cdi":6.4,"mmi":null,"Posibilidad tsunami":0,"Importancia del evento":356,"Ids":",us6000jru0,","nst":136.0,"Distancia Horizontal Epicentro":2.456,"RMS":0.56,"Brecha Azimutal":91.0,"Pais":"Peru","Longitud":-80.8696,"Latitud":-5.8854,"Profundidad":32.402},{"id":"us6000jqzb","Magnituud":4.6,"Place":"22 km SW of Quiches","Fecha":1677133093260,"Ultimo registro":1682805449040,"Felt":null,"cdi":null,"mmi":null,"Posibilidad tsunami":0,"Importancia del evento":326,"Ids":",us6000jqzb,","nst":71.0,"Distancia Horizontal Epicentro":3.496,"RMS":0.49,"Brecha Azimutal":147.0,"Pais":"Peru","Longitud":-77.621,"Latitud":-8.5549,"Profundidad":67.43},{"id":"us6000jqq0","Magnituud":4.3,"Place":"35 km SE of Palca","Fecha":1677040775190,"Ultimo registro":1682805444040,"Felt":null,"cdi":null,"mmi":null,"Posibilidad tsunami":0,"Importancia del evento":284,"Ids":",us6000jqq0,","nst":47.0,"Distancia Horizontal Epicentro":0.388,"RMS":0.84,"Brecha Azimutal":72.0,"Pais":"Peru","Longitud":-69.7648,"Latitud":-18.0318,"Profundidad":118.711},{"id":"us7000jg9p","Magnituud":4.1,"Place":"27 km NNW of Salcabamba","Fecha":1676883700276,"Ultimo registro":1682805436040,"Felt":null,"cdi":null,"mmi":null,"Posibilidad tsunami":0,"Importancia del evento":259,"Ids":",us7000jg9p,","nst":19.0,"Distancia Horizontal Epicentro":1.936,"RMS":0.79,"Brecha Azimutal":54.0,"Pais":"Peru","Longitud":-74.864,"Latitud":-11.9691,"Profundidad":100.154},{"id":"us6000jq9a","Magnituud":4.2,"Place":"19 km NE of El Cardo","Fecha":1676875174984,"Ultimo registro":1682805436040,"Felt":null,"cdi":null,"mmi":null,"Posibilidad tsunami":0,"Importancia del evento":271,"Ids":",us6000jq9a,","nst":12.0,"Distancia Horizontal Epicentro":2.879,"RMS":0.63,"Brecha Azimutal":177.0,"Pais":"Peru","Longitud":-72.6146,"Latitud":-16.4681,"Profundidad":96.185},{"id":"us6000jq2z","Magnituud":4.5,"Place":"6 km NW of Sibayo","Fecha":1676801130248,"Ultimo registro":1682805432040,"Felt":null,"cdi":null,"mmi":null,"Posibilidad tsunami":0,"Importancia del evento":312,"Ids":",us6000jq2z,","nst":57.0,"Distancia Horizontal Epicentro":2.883,"RMS":0.62,"Brecha Azimutal":112.0,"Pais":"Peru","Longitud":-71.4991,"Latitud":-15.4415,"Profundidad":146.252},{"id":"us6000jq0w","Magnituud":4.3,"Place":"18 km WSW of Montecristi","Fecha":1676771318285,"Ultimo registro":1682805430040,"Felt":null,"cdi":null,"mmi":null,"Posibilidad tsunami":0,"Importancia del evento":284,"Ids":",us6000jq0w,","nst":19.0,"Distancia Horizontal Epicentro":1.226,"RMS":1.1,"Brecha Azimutal":183.0,"Pais":"Ecuador","Longitud":-80.8114,"Latitud":-1.1134,"Profundidad":10.0},{"id":"us6000jpyr","Magnituud":4.5,"Place":"9 km NE of Ocoruro","Fecha":1676748674123,"Ultimo registro":1682199200040,"Felt":1.0,"cdi":3.8,"mmi":null,"Posibilidad tsunami":0,"Importancia del evento":312,"Ids":",us6000jpyr,","nst":44.0,"Distancia Horizontal Epicentro":3.011,"RMS":0.7,"Brecha Azimutal":95.0,"Pais":"Peru","Longitud":-71.0753,"Latitud":-14.9824,"Profundidad":162.951},{"id":"us6000jpiz","Magnituud":4.4,"Place":"9 km ENE of Ayo","Fecha":1676610938146,"Ultimo registro":1682199195040,"Felt":null,"cdi":null,"mmi":null,"Posibilidad tsunami":0,"Importancia del evento":298,"Ids":",us6000jpiz,","nst":12.0,"Distancia Horizontal Epicentro":3.219,"RMS":0.83,"Brecha Azimutal":151.0,"Pais":"Peru","Longitud":-72.1834,"Latitud":-15.6616,"Profundidad":157.41},{"id":"us6000jnid","Magnituud":4.2,"Place":"Near the coast of Tarapaca","Fecha":1676247384717,"Ultimo registro":1682199184040,"Felt":null,"cdi":null,"mmi":null,"Posibilidad tsunami":0,"Importancia del evento":271,"Ids":",us6000jnid,","nst":17.0,"Distancia Horizontal Epicentro":0.207,"RMS":0.37,"Brecha Azimutal":179.0,"Pais":"Chile","Longitud":-70.1842,"Latitud":-18.2274,"Profundidad":103.154},{"id":"us6000jqbj","Magnituud":4.2,"Place":"40 km S of Atiquipa","Fecha":1676181521767,"Ultimo registro":1682199201040,"Felt":null,"cdi":null,"mmi":null,"Posibilidad tsunami":0,"Importancia del evento":271,"Ids":",us6000jqbj,","nst":16.0,"Distancia Horizontal Epicentro":4.527,"RMS":0.79,"Brecha Azimutal":152.0,"Pais":"Peru","Longitud":-74.3193,"Latitud":-16.1568,"Profundidad":32.345},{"id":"us6000jmqb","Magnituud":4.2,"Place":"73 km SSE of Puerto Ocopa","Fecha":1675946375118,"Ultimo registro":1681594791040,"Felt":null,"cdi":null,"mmi":null,"Posibilidad tsunami":0,"Importancia del evento":271,"Ids":",us6000jmqb,","nst":27.0,"Distancia Horizontal Epicentro":2.815,"RMS":1.27,"Brecha Azimutal":96.0,"Pais":"Peru","Longitud":-73.9791,"Latitud":-11.7283,"Profundidad":100.601},{"id":"us7000jgz3","Magnituud":3.4,"Place":"17 km WSW of Vilca","Fecha":1675860929015,"Ultimo registro":1681594814040,"Felt":null,"cdi":null,"mmi":null,"Posibilidad tsunami":0,"Importancia del evento":178,"Ids":",us7000jgz3,","nst":8.0,"Distancia Horizontal Epicentro":1.585,"RMS":0.84,"Brecha Azimutal":141.0,"Pais":"Peru","Longitud":-75.3247,"Latitud":-12.5502,"Profundidad":10.0},{"id":"us6000jln2","Magnituud":4.0,"Place":"32 km E of Palca","Fecha":1675652836454,"Ultimo registro":1681594774040,"Felt":null,"cdi":null,"mmi":null,"Posibilidad tsunami":0,"Importancia del evento":246,"Ids":",us6000jln2,","nst":24.0,"Distancia Horizontal Epicentro":0.215,"RMS":0.8,"Brecha Azimutal":97.0,"Pais":"Peru","Longitud":-69.6588,"Latitud":-17.722,"Profundidad":156.984},{"id":"us6000jlbd","Magnituud":4.6,"Place":"off the coast of northern Peru","Fecha":1675475195912,"Ultimo registro":1681422802040,"Felt":null,"cdi":null,"mmi":null,"Posibilidad tsunami":0,"Importancia del evento":326,"Ids":",us6000jlbd,","nst":26.0,"Distancia Horizontal Epicentro":2.423,"RMS":1.12,"Brecha Azimutal":145.0,"Pais":null,"Longitud":-80.8339,"Latitud":-7.0458,"Profundidad":10.0},{"id":"us6000jl1l","Magnituud":4.4,"Place":"11 km ENE of Pujocucho","Fecha":1675370257989,"Ultimo registro":1681422799040,"Felt":null,"cdi":null,"mmi":null,"Posibilidad tsunami":0,"Importancia del evento":298,"Ids":",us6000jl1l,","nst":37.0,"Distancia Horizontal Epicentro":0.892,"RMS":0.68,"Brecha Azimutal":129.0,"Pais":"Peru","Longitud":-70.2647,"Latitud":-17.1027,"Profundidad":137.223},{"id":"us6000jl0h","Magnituud":4.4,"Place":"22 km WSW of Atico","Fecha":1675359768308,"Ultimo registro":1681422799040,"Felt":null,"cdi":null,"mmi":null,"Posibilidad tsunami":0,"Importancia del evento":298,"Ids":",us6000jl0h,","nst":25.0,"Distancia Horizontal Epicentro":3.921,"RMS":0.78,"Brecha Azimutal":145.0,"Pais":"Peru","Longitud":-73.8176,"Latitud":-16.272,"Profundidad":42.508},{"id":"us6000jkue","Magnituud":5.1,"Place":"62 km WNW of Salinas","Fecha":1675286097755,"Ultimo registro":1681422796040,"Felt":null,"cdi":null,"mmi":null,"Posibilidad tsunami":0,"Importancia del evento":400,"Ids":",us6000jkue,","nst":143.0,"Distancia Horizontal Epicentro":1.891,"RMS":0.52,"Brecha Azimutal":82.0,"Pais":"Ecuador","Longitud":-81.428,"Latitud":-1.9108,"Profundidad":22.807},{"id":"us6000jkpu","Magnituud":4.8,"Place":"44 km SSW of Puerto Casma","Fecha":1675248747941,"Ultimo registro":1681422795040,"Felt":null,"cdi":null,"mmi":null,"Posibilidad tsunami":0,"Importancia del evento":354,"Ids":",us6000jkpu,","nst":47.0,"Distancia Horizontal Epicentro":2.705,"RMS":0.69,"Brecha Azimutal":168.0,"Pais":"Peru","Longitud":-78.5357,"Latitud":-9.8409,"Profundidad":61.141},{"id":"us6000jkpi","Magnituud":4.4,"Place":"12 km SSW of Palora","Fecha":1675241907869,"Ultimo registro":1681422795040,"Felt":null,"cdi":null,"mmi":null,"Posibilidad tsunami":0,"Importancia del evento":298,"Ids":",us6000jkpi,","nst":52.0,"Distancia Horizontal Epicentro":0.921,"RMS":0.8,"Brecha Azimutal":47.0,"Pais":"Ecuador","Longitud":-78.0035,"Latitud":-1.8098,"Profundidad":159.108},{"id":"us6000jkn6","Magnituud":4.3,"Place":"3 km N of Pi\u00f1as","Fecha":1675220067922,"Ultimo registro":1681422794040,"Felt":null,"cdi":null,"mmi":null,"Posibilidad tsunami":0,"Importancia del evento":284,"Ids":",us6000jkn6,","nst":20.0,"Distancia Horizontal Epicentro":0.396,"RMS":0.82,"Brecha Azimutal":122.0,"Pais":"Ecuador","Longitud":-79.6826,"Latitud":-3.6451,"Profundidad":10.0},{"id":"us6000jjzg","Magnituud":4.5,"Place":"23 km S of Tumbes","Fecha":1674907109831,"Ultimo registro":1681239098040,"Felt":null,"cdi":null,"mmi":null,"Posibilidad tsunami":0,"Importancia del evento":312,"Ids":",us6000jjzg,","nst":17.0,"Distancia Horizontal Epicentro":0.469,"RMS":0.51,"Brecha Azimutal":173.0,"Pais":"Peru","Longitud":-80.4779,"Latitud":-3.7762,"Profundidad":61.631},{"id":"us6000jmw1","Magnituud":4.5,"Place":"1 km WSW of San Clemente","Fecha":1674900865261,"Ultimo registro":1681239110040,"Felt":null,"cdi":null,"mmi":null,"Posibilidad tsunami":0,"Importancia del evento":312,"Ids":",us6000jmw1,","nst":32.0,"Distancia Horizontal Epicentro":1.799,"RMS":0.47,"Brecha Azimutal":163.0,"Pais":"Peru","Longitud":-76.1594,"Latitud":-13.669,"Profundidad":75.867},{"id":"us6000jjn6","Magnituud":4.6,"Place":"24 km N of Mazo Cruz","Fecha":1674816679149,"Ultimo registro":1681239096040,"Felt":null,"cdi":null,"mmi":null,"Posibilidad tsunami":0,"Importancia del evento":326,"Ids":",us6000jjn6,","nst":39.0,"Distancia Horizontal Epicentro":1.084,"RMS":0.99,"Brecha Azimutal":125.0,"Pais":"Peru","Longitud":-69.7061,"Latitud":-16.5209,"Profundidad":191.21},{"id":"us6000jjk4","Magnituud":4.3,"Place":"24 km ENE of Cocachacra","Fecha":1674771378969,"Ultimo registro":1681239095040,"Felt":null,"cdi":null,"mmi":null,"Posibilidad tsunami":0,"Importancia del evento":284,"Ids":",us6000jjk4,","nst":24.0,"Distancia Horizontal Epicentro":1.746,"RMS":0.68,"Brecha Azimutal":147.0,"Pais":"Peru","Longitud":-71.5323,"Latitud":-17.0363,"Profundidad":100.859},{"id":"us6000jjbm","Magnituud":4.4,"Place":"Ecuador","Fecha":1674707384012,"Ultimo registro":1681239093040,"Felt":null,"cdi":null,"mmi":null,"Posibilidad tsunami":0,"Importancia del evento":298,"Ids":",us6000jjbm,","nst":27.0,"Distancia Horizontal Epicentro":0.301,"RMS":0.68,"Brecha Azimutal":72.0,"Pais":null,"Longitud":-77.4686,"Latitud":-0.1313,"Profundidad":10.0},{"id":"us6000jjb9","Magnituud":4.6,"Place":"4 km SW of El Triunfo","Fecha":1674702981968,"Ultimo registro":1681239093040,"Felt":null,"cdi":null,"mmi":null,"Posibilidad tsunami":0,"Importancia del evento":326,"Ids":",us6000jjb9,","nst":23.0,"Distancia Horizontal Epicentro":0.495,"RMS":0.38,"Brecha Azimutal":137.0,"Pais":"Ecuador","Longitud":-79.9976,"Latitud":-1.9602,"Profundidad":76.274},{"id":"us6000jjb1","Magnituud":4.3,"Place":"28 km SSE of Mazo Cruz","Fecha":1674695820849,"Ultimo registro":1681239093040,"Felt":null,"cdi":null,"mmi":null,"Posibilidad tsunami":0,"Importancia del evento":284,"Ids":",us6000jjb1,","nst":22.0,"Distancia Horizontal Epicentro":0.63,"RMS":0.72,"Brecha Azimutal":104.0,"Pais":"Peru","Longitud":-69.5857,"Latitud":-16.964,"Profundidad":193.113},{"id":"us6000jlwp","Magnituud":3.5,"Place":"63 km NE of Paucarbamba","Fecha":1674640143192,"Ultimo registro":1681239104040,"Felt":null,"cdi":null,"mmi":null,"Posibilidad tsunami":0,"Importancia del evento":188,"Ids":",us6000jlwp,","nst":13.0,"Distancia Horizontal Epicentro":2.619,"RMS":1.81,"Brecha Azimutal":115.0,"Pais":"Peru","Longitud":-74.1681,"Latitud":-12.1091,"Profundidad":9.946},{"id":"us6000jj3z","Magnituud":4.3,"Place":"23 km NNW of Zorritos","Fecha":1674637899920,"Ultimo registro":1681239090040,"Felt":null,"cdi":null,"mmi":null,"Posibilidad tsunami":0,"Importancia del evento":284,"Ids":",us6000jj3z,","nst":43.0,"Distancia Horizontal Epicentro":0.67,"RMS":0.71,"Brecha Azimutal":159.0,"Pais":"Peru","Longitud":-80.7345,"Latitud":-3.4777,"Profundidad":39.801},{"id":"us7000j66j","Magnituud":4.5,"Place":"58 km WNW of San Juan","Fecha":1674367647639,"Ultimo registro":1681239112040,"Felt":null,"cdi":null,"mmi":null,"Posibilidad tsunami":0,"Importancia del evento":312,"Ids":",us7000j66j,","nst":50.0,"Distancia Horizontal Epicentro":3.402,"RMS":0.8,"Brecha Azimutal":153.0,"Pais":"Peru","Longitud":-75.6858,"Latitud":-15.2179,"Profundidad":23.967},{"id":"us7000j64i","Magnituud":4.3,"Place":"40 km ENE of Orcopampa","Fecha":1674337816768,"Ultimo registro":1680291968040,"Felt":null,"cdi":null,"mmi":null,"Posibilidad tsunami":0,"Importancia del evento":284,"Ids":",us7000j64i,","nst":23.0,"Distancia Horizontal Epicentro":3.447,"RMS":1.08,"Brecha Azimutal":122.0,"Pais":"Peru","Longitud":-71.9964,"Latitud":-15.116,"Profundidad":118.247},{"id":"us7000j605","Magnituud":4.0,"Place":"51 km SSW of Las Yaras","Fecha":1674273929561,"Ultimo registro":1680291950040,"Felt":null,"cdi":null,"mmi":null,"Posibilidad tsunami":0,"Importancia del evento":246,"Ids":",us7000j605,","nst":35.0,"Distancia Horizontal Epicentro":0.4,"RMS":0.99,"Brecha Azimutal":105.0,"Pais":"Peru","Longitud":-70.755,"Latitud":-18.2909,"Profundidad":42.939},{"id":"us7000j5dh","Magnituud":4.3,"Place":"12 km W of Palora","Fecha":1674085412344,"Ultimo registro":1680291918040,"Felt":null,"cdi":null,"mmi":null,"Posibilidad tsunami":0,"Importancia del evento":284,"Ids":",us7000j5dh,","nst":44.0,"Distancia Horizontal Epicentro":0.816,"RMS":0.62,"Brecha Azimutal":54.0,"Pais":"Ecuador","Longitud":-78.0794,"Latitud":-1.7012,"Profundidad":158.386},{"id":"us7000j4yg","Magnituud":4.2,"Place":"50 km SSW of Atico","Fecha":1673980800247,"Ultimo registro":1680291895040,"Felt":null,"cdi":null,"mmi":null,"Posibilidad tsunami":0,"Importancia del evento":271,"Ids":",us7000j4yg,","nst":24.0,"Distancia Horizontal Epicentro":3.707,"RMS":0.82,"Brecha Azimutal":108.0,"Pais":"Peru","Longitud":-73.7836,"Latitud":-16.6425,"Profundidad":51.778},{"id":"us7000j4x4","Magnituud":4.4,"Place":"44 km N of Pucallpa","Fecha":1673973948717,"Ultimo registro":1680291893040,"Felt":null,"cdi":null,"mmi":null,"Posibilidad tsunami":0,"Importancia del evento":298,"Ids":",us7000j4x4,","nst":57.0,"Distancia Horizontal Epicentro":1.847,"RMS":0.7,"Brecha Azimutal":50.0,"Pais":"Peru","Longitud":-74.5524,"Latitud":-7.9784,"Profundidad":158.607},{"id":"us7000j4v4","Magnituud":4.3,"Place":"57 km W of Tarauac\u00e1","Fecha":1673949565446,"Ultimo registro":1680291891040,"Felt":null,"cdi":null,"mmi":null,"Posibilidad tsunami":0,"Importancia del evento":284,"Ids":",us7000j4v4,","nst":69.0,"Distancia Horizontal Epicentro":1.453,"RMS":0.59,"Brecha Azimutal":44.0,"Pais":"Brazil","Longitud":-71.2863,"Latitud":-8.1009,"Profundidad":621.296},{"id":"us6000jj5e","Magnituud":4.0,"Place":"Peru-Ecuador border region","Fecha":1673903056684,"Ultimo registro":1680291794040,"Felt":null,"cdi":null,"mmi":null,"Posibilidad tsunami":0,"Importancia del evento":246,"Ids":",us6000jj5e,","nst":18.0,"Distancia Horizontal Epicentro":1.272,"RMS":0.34,"Brecha Azimutal":135.0,"Pais":null,"Longitud":-77.7717,"Latitud":-2.1417,"Profundidad":152.782},{"id":"us7000j4s5","Magnituud":4.6,"Place":"13 km S of Lampa","Fecha":1673902495035,"Ultimo registro":1680291882040,"Felt":null,"cdi":null,"mmi":null,"Posibilidad tsunami":0,"Importancia del evento":326,"Ids":",us7000j4s5,","nst":49.0,"Distancia Horizontal Epicentro":2.275,"RMS":0.87,"Brecha Azimutal":99.0,"Pais":"Peru","Longitud":-70.3818,"Latitud":-15.4734,"Profundidad":215.603},{"id":"us7000j4ib","Magnituud":4.5,"Place":"35 km SSE of San Fernando","Fecha":1673782035911,"Ultimo registro":1680291862040,"Felt":null,"cdi":null,"mmi":null,"Posibilidad tsunami":0,"Importancia del evento":312,"Ids":",us7000j4ib,","nst":38.0,"Distancia Horizontal Epicentro":1.92,"RMS":0.67,"Brecha Azimutal":105.0,"Pais":"Peru","Longitud":-74.3909,"Latitud":-8.6856,"Profundidad":162.669},{"id":"us7000j6cx","Magnituud":4.4,"Place":"15 km WNW of Pomabamba","Fecha":1673686797400,"Ultimo registro":1679292244040,"Felt":1.0,"cdi":4.9,"mmi":null,"Posibilidad tsunami":0,"Importancia del evento":298,"Ids":",us7000j6cx,","nst":21.0,"Distancia Horizontal Epicentro":2.872,"RMS":0.66,"Brecha Azimutal":131.0,"Pais":"Peru","Longitud":-74.3524,"Latitud":-13.5294,"Profundidad":10.025},{"id":"us7000j3wh","Magnituud":4.5,"Place":"95 km SE of Palca","Fecha":1673529243311,"Ultimo registro":1679292209040,"Felt":null,"cdi":null,"mmi":null,"Posibilidad tsunami":0,"Importancia del evento":312,"Ids":",us7000j3wh,","nst":36.0,"Distancia Horizontal Epicentro":0.167,"RMS":0.93,"Brecha Azimutal":56.0,"Pais":"Peru","Longitud":-69.3587,"Latitud":-18.4237,"Profundidad":132.628},{"id":"us7000j3lc","Magnituud":4.4,"Place":"Near the coast of southern Peru","Fecha":1673432124138,"Ultimo registro":1679292199040,"Felt":null,"cdi":null,"mmi":null,"Posibilidad tsunami":0,"Importancia del evento":298,"Ids":",us7000j3lc,","nst":19.0,"Distancia Horizontal Epicentro":4.122,"RMS":0.99,"Brecha Azimutal":166.0,"Pais":null,"Longitud":-74.2667,"Latitud":-16.6398,"Profundidad":10.0},{"id":"us7000j2lq","Magnituud":4.6,"Place":"off the coast of northern Peru","Fecha":1673023803269,"Ultimo registro":1678575102040,"Felt":null,"cdi":null,"mmi":null,"Posibilidad tsunami":0,"Importancia del evento":326,"Ids":",us7000j2lq,","nst":30.0,"Distancia Horizontal Epicentro":3.422,"RMS":0.57,"Brecha Azimutal":89.0,"Pais":null,"Longitud":-79.0651,"Latitud":-9.3369,"Profundidad":62.141},{"id":"us7000j2in","Magnituud":4.4,"Place":"63 km WNW of El Alto","Fecha":1673008397462,"Ultimo registro":1678575102040,"Felt":null,"cdi":null,"mmi":null,"Posibilidad tsunami":0,"Importancia del evento":298,"Ids":",us7000j2in,","nst":29.0,"Distancia Horizontal Epicentro":1.726,"RMS":0.51,"Brecha Azimutal":124.0,"Pais":"Peru","Longitud":-81.7315,"Latitud":-4.0222,"Profundidad":8.451},{"id":"us7000j27d","Magnituud":4.8,"Place":"35 km N of Santa Rosa","Fecha":1672889896317,"Ultimo registro":1678575100040,"Felt":1.0,"cdi":3.1,"mmi":null,"Posibilidad tsunami":0,"Importancia del evento":355,"Ids":",us7000j27d,","nst":168.0,"Distancia Horizontal Epicentro":2.38,"RMS":0.63,"Brecha Azimutal":79.0,"Pais":"Peru","Longitud":-74.8614,"Latitud":-10.6035,"Profundidad":121.093},{"id":"us7000j1r8","Magnituud":4.4,"Place":"22 km S of Quilca","Fecha":1672720341424,"Ultimo registro":1678575094040,"Felt":null,"cdi":null,"mmi":null,"Posibilidad tsunami":0,"Importancia del evento":298,"Ids":",us7000j1r8,","nst":21.0,"Distancia Horizontal Epicentro":2.473,"RMS":0.35,"Brecha Azimutal":144.0,"Pais":"Peru","Longitud":-72.4467,"Latitud":-16.9179,"Profundidad":63.519},{"id":"us7000j1qq","Magnituud":4.1,"Place":"32 km NE of Arica","Fecha":1672711794544,"Ultimo registro":1678575094040,"Felt":null,"cdi":null,"mmi":null,"Posibilidad tsunami":0,"Importancia del evento":259,"Ids":",us7000j1qq,","nst":23.0,"Distancia Horizontal Epicentro":0.281,"RMS":1.08,"Brecha Azimutal":81.0,"Pais":"Chile","Longitud":-70.0597,"Latitud":-18.287,"Profundidad":85.305},{"id":"us7000j1qb","Magnituud":4.4,"Place":"72 km SSE of San Juan","Fecha":1672705249856,"Ultimo registro":1678575094040,"Felt":null,"cdi":null,"mmi":null,"Posibilidad tsunami":0,"Importancia del evento":298,"Ids":",us7000j1qb,","nst":36.0,"Distancia Horizontal Epicentro":4.37,"RMS":0.73,"Brecha Azimutal":99.0,"Pais":"Peru","Longitud":-75.0248,"Latitud":-16.0098,"Profundidad":10.0},{"id":"us7000j1b1","Magnituud":4.9,"Place":"27 km NNE of Mazo Cruz","Fecha":1672527852381,"Ultimo registro":1678215602040,"Felt":null,"cdi":null,"mmi":null,"Posibilidad tsunami":0,"Importancia del evento":369,"Ids":",us7000j1b1,","nst":105.0,"Distancia Horizontal Epicentro":1.096,"RMS":0.75,"Brecha Azimutal":100.0,"Pais":"Peru","Longitud":-69.659,"Latitud":-16.5013,"Profundidad":190.386},{"id":"us7000j15l","Magnituud":4.3,"Place":"23 km ESE of Palora","Fecha":1672447437999,"Ultimo registro":1678215601040,"Felt":null,"cdi":null,"mmi":null,"Posibilidad tsunami":0,"Importancia del evento":284,"Ids":",us7000j15l,","nst":51.0,"Distancia Horizontal Epicentro":1.127,"RMS":0.59,"Brecha Azimutal":76.0,"Pais":"Ecuador","Longitud":-77.7617,"Latitud":-1.7451,"Profundidad":182.543},{"id":"us7000j14p","Magnituud":5.2,"Place":"67 km WSW of Changuillo","Fecha":1672437209589,"Ultimo registro":1678215600040,"Felt":2.0,"cdi":2.7,"mmi":null,"Posibilidad tsunami":0,"Importancia del evento":417,"Ids":",us7000j14p,usauto7000j14p,","nst":121.0,"Distancia Horizontal Epicentro":3.173,"RMS":0.61,"Brecha Azimutal":104.0,"Pais":"Peru","Longitud":-75.7501,"Latitud":-14.9955,"Profundidad":10.338},{"id":"us7000j3pb","Magnituud":4.3,"Place":"81 km WSW of Barranca","Fecha":1672422181113,"Ultimo registro":1678215610040,"Felt":null,"cdi":null,"mmi":null,"Posibilidad tsunami":0,"Importancia del evento":284,"Ids":",us7000j3pb,","nst":49.0,"Distancia Horizontal Epicentro":2.324,"RMS":0.86,"Brecha Azimutal":67.0,"Pais":"Peru","Longitud":-77.3878,"Latitud":-5.0236,"Profundidad":123.83},{"id":"us7000j0ps","Magnituud":5.3,"Place":"17 km SSW of El Pedregal","Fecha":1672261864642,"Ultimo registro":1678215596040,"Felt":15.0,"cdi":5.4,"mmi":null,"Posibilidad tsunami":0,"Importancia del evento":440,"Ids":",us7000j0ps,usauto7000j0ps,","nst":252.0,"Distancia Horizontal Epicentro":2.607,"RMS":0.68,"Brecha Azimutal":82.0,"Pais":"Peru","Longitud":-72.2643,"Latitud":-16.5084,"Profundidad":74.573},{"id":"us7000j0k1","Magnituud":4.9,"Place":null,"Fecha":1672192199444,"Ultimo registro":1678215594040,"Felt":1.0,"cdi":2.9,"mmi":null,"Posibilidad tsunami":0,"Importancia del evento":370,"Ids":",us7000j0k1,","nst":78.0,"Distancia Horizontal Epicentro":2.733,"RMS":0.69,"Brecha Azimutal":87.0,"Pais":null,"Longitud":-74.6016,"Latitud":-10.3543,"Profundidad":8.965},{"id":"us6000jbx4","Magnituud":4.2,"Place":"11 km NNW of Eloy Alfaro","Fecha":1672118711191,"Ultimo registro":1678215592040,"Felt":null,"cdi":null,"mmi":null,"Posibilidad tsunami":0,"Importancia del evento":271,"Ids":",us6000jbx4,","nst":21.0,"Distancia Horizontal Epicentro":0.349,"RMS":0.28,"Brecha Azimutal":132.0,"Pais":"Ecuador","Longitud":-79.8896,"Latitud":-2.0806,"Profundidad":73.782},{"id":"us6000jbsy","Magnituud":4.3,"Place":"37 km ENE of Palca","Fecha":1672065008286,"Ultimo registro":1678215590040,"Felt":null,"cdi":null,"mmi":null,"Posibilidad tsunami":0,"Importancia del evento":284,"Ids":",us6000jbsy,","nst":47.0,"Distancia Horizontal Epicentro":0.158,"RMS":0.62,"Brecha Azimutal":97.0,"Pais":"Peru","Longitud":-69.6286,"Latitud":-17.6605,"Profundidad":157.426},{"id":"us6000jbpk","Magnituud":4.6,"Place":"27 km ENE of Parcoy","Fecha":1672013428213,"Ultimo registro":1678215589040,"Felt":null,"cdi":null,"mmi":null,"Posibilidad tsunami":0,"Importancia del evento":326,"Ids":",us6000jbpk,","nst":56.0,"Distancia Horizontal Epicentro":1.36,"RMS":0.61,"Brecha Azimutal":80.0,"Pais":"Peru","Longitud":-77.2636,"Latitud":-7.9097,"Profundidad":84.314},{"id":"us6000jbeg","Magnituud":4.1,"Place":"53 km E of Palora","Fecha":1671860950511,"Ultimo registro":1678215585040,"Felt":null,"cdi":null,"mmi":null,"Posibilidad tsunami":0,"Importancia del evento":259,"Ids":",us6000jbeg,","nst":21.0,"Distancia Horizontal Epicentro":1.281,"RMS":0.6,"Brecha Azimutal":67.0,"Pais":"Ecuador","Longitud":-77.482,"Latitud":-1.7136,"Profundidad":181.664},{"id":"us6000jb2a","Magnituud":5.5,"Place":"46 km NNE of Pucallpa","Fecha":1671714835515,"Ultimo registro":1677625604040,"Felt":4.0,"cdi":4.8,"mmi":3.513,"Posibilidad tsunami":0,"Importancia del evento":467,"Ids":",us6000jb2a,usauto6000jb2a,","nst":105.0,"Distancia Horizontal Epicentro":4.642,"RMS":1.01,"Brecha Azimutal":83.0,"Pais":"Peru","Longitud":-74.4173,"Latitud":-7.9816,"Profundidad":155.984},{"id":"us6000jaks","Magnituud":4.6,"Place":"5 km ESE of Oxapampa","Fecha":1671545658429,"Ultimo registro":1677625594040,"Felt":null,"cdi":null,"mmi":null,"Posibilidad tsunami":0,"Importancia del evento":326,"Ids":",us6000jaks,","nst":64.0,"Distancia Horizontal Epicentro":2.01,"RMS":0.48,"Brecha Azimutal":93.0,"Pais":"Peru","Longitud":-75.353,"Latitud":-10.598,"Profundidad":11.845},{"id":"us6000jab8","Magnituud":4.1,"Place":"10 km ESE of Rocafuerte","Fecha":1671452783993,"Ultimo registro":1677625590040,"Felt":null,"cdi":null,"mmi":null,"Posibilidad tsunami":0,"Importancia del evento":259,"Ids":",us6000jab8,","nst":22.0,"Distancia Horizontal Epicentro":8.361,"RMS":0.73,"Brecha Azimutal":142.0,"Pais":"Ecuador","Longitud":-80.3711,"Latitud":-0.9707,"Profundidad":35.0},{"id":"us6000jaar","Magnituud":4.4,"Place":"near the coast of Ecuador","Fecha":1671447715987,"Ultimo registro":1677625589040,"Felt":1.0,"cdi":3.4,"mmi":null,"Posibilidad tsunami":0,"Importancia del evento":298,"Ids":",us6000jaar,","nst":37.0,"Distancia Horizontal Epicentro":8.363,"RMS":0.48,"Brecha Azimutal":142.0,"Pais":null,"Longitud":-80.3295,"Latitud":-1.0179,"Profundidad":35.0},{"id":"us6000ja7n","Magnituud":4.9,"Place":"59 km W of Alianza Cristiana","Fecha":1671411424674,"Ultimo registro":1677625588040,"Felt":2.0,"cdi":2.0,"mmi":null,"Posibilidad tsunami":0,"Importancia del evento":370,"Ids":",us6000ja7n,","nst":116.0,"Distancia Horizontal Epicentro":3.906,"RMS":0.61,"Brecha Azimutal":85.0,"Pais":"Peru","Longitud":-76.9707,"Latitud":-3.4711,"Profundidad":101.306},{"id":"us6000ja7e","Magnituud":4.4,"Place":"2 km E of Chichas","Fecha":1671408665590,"Ultimo registro":1677625588040,"Felt":null,"cdi":null,"mmi":null,"Posibilidad tsunami":0,"Importancia del evento":298,"Ids":",us6000ja7e,","nst":43.0,"Distancia Horizontal Epicentro":3.725,"RMS":0.45,"Brecha Azimutal":93.0,"Pais":"Peru","Longitud":-72.8986,"Latitud":-15.5465,"Profundidad":91.475},{"id":"us6000ja2s","Magnituud":4.1,"Place":"8 km SSE of Palca","Fecha":1671328143207,"Ultimo registro":1677625584040,"Felt":null,"cdi":null,"mmi":null,"Posibilidad tsunami":0,"Importancia del evento":259,"Ids":",us6000ja2s,","nst":23.0,"Distancia Horizontal Epicentro":0.513,"RMS":0.61,"Brecha Azimutal":124.0,"Pais":"Peru","Longitud":-69.9444,"Latitud":-17.8504,"Profundidad":116.443},{"id":"us6000j9pb","Magnituud":5.2,"Place":"68 km WSW of Pimentel","Fecha":1671186229979,"Ultimo registro":1676757855040,"Felt":2.0,"cdi":4.7,"mmi":null,"Posibilidad tsunami":0,"Importancia del evento":417,"Ids":",us6000j9pb,","nst":112.0,"Distancia Horizontal Epicentro":6.021,"RMS":0.38,"Brecha Azimutal":76.0,"Pais":"Peru","Longitud":-80.4818,"Latitud":-7.1222,"Profundidad":10.0},{"id":"us6000j9nd","Magnituud":4.6,"Place":"6 km NNE of Huaros","Fecha":1671170213200,"Ultimo registro":1676757855040,"Felt":5.0,"cdi":3.4,"mmi":null,"Posibilidad tsunami":0,"Importancia del evento":327,"Ids":",us6000j9nd,","nst":37.0,"Distancia Horizontal Epicentro":0.694,"RMS":0.84,"Brecha Azimutal":119.0,"Pais":"Peru","Longitud":-76.5423,"Latitud":-11.3544,"Profundidad":5.163},{"id":"us6000j9du","Magnituud":4.9,"Place":"3 km ESE of Huaros","Fecha":1671096678656,"Ultimo registro":1676757852040,"Felt":13.0,"cdi":3.4,"mmi":null,"Posibilidad tsunami":0,"Importancia del evento":374,"Ids":",us6000j9du,","nst":61.0,"Distancia Horizontal Epicentro":0.633,"RMS":0.97,"Brecha Azimutal":86.0,"Pais":"Peru","Longitud":-76.5433,"Latitud":-11.4227,"Profundidad":10.0},{"id":"us6000j8ud","Magnituud":4.6,"Place":"79 km SE of Mazamari","Fecha":1670871162146,"Ultimo registro":1676757846040,"Felt":null,"cdi":null,"mmi":null,"Posibilidad tsunami":0,"Importancia del evento":326,"Ids":",us6000j8ud,","nst":29.0,"Distancia Horizontal Epicentro":2.759,"RMS":0.61,"Brecha Azimutal":101.0,"Pais":"Peru","Longitud":-74.0267,"Latitud":-11.8481,"Profundidad":99.274},{"id":"us6000j8q6","Magnituud":4.9,"Place":"7 km SSE of Macar\u00e1","Fecha":1670828100411,"Ultimo registro":1676757845040,"Felt":5.0,"cdi":4.1,"mmi":null,"Posibilidad tsunami":0,"Importancia del evento":371,"Ids":",us6000j8q6,","nst":148.0,"Distancia Horizontal Epicentro":7.873,"RMS":0.39,"Brecha Azimutal":98.0,"Pais":"Ecuador","Longitud":-79.9071,"Latitud":-4.438,"Profundidad":71.23},{"id":"us6000j8pv","Magnituud":4.2,"Place":"27 km E of Mazo Cruz","Fecha":1670819276559,"Ultimo registro":1676757845040,"Felt":1.0,"cdi":2.0,"mmi":null,"Posibilidad tsunami":0,"Importancia del evento":272,"Ids":",us6000j8pv,","nst":26.0,"Distancia Horizontal Epicentro":0.832,"RMS":0.68,"Brecha Azimutal":98.0,"Pais":"Peru","Longitud":-69.4558,"Latitud":-16.7535,"Profundidad":200.064},{"id":"us6000j9ia","Magnituud":4.4,"Place":"8 km ENE of Huangala","Fecha":1670792406723,"Ultimo registro":1676757853040,"Felt":null,"cdi":null,"mmi":null,"Posibilidad tsunami":0,"Importancia del evento":298,"Ids":",us6000j9ia,","nst":36.0,"Distancia Horizontal Epicentro":8.019,"RMS":0.66,"Brecha Azimutal":75.0,"Pais":"Peru","Longitud":-80.5332,"Latitud":-4.8007,"Profundidad":52.154},{"id":"us6000j82i","Magnituud":4.5,"Place":"44 km ENE of Chone","Fecha":1670556274351,"Ultimo registro":1676156599040,"Felt":2.0,"cdi":4.1,"mmi":null,"Posibilidad tsunami":0,"Importancia del evento":312,"Ids":",us6000j82i,","nst":18.0,"Distancia Horizontal Epicentro":7.634,"RMS":0.65,"Brecha Azimutal":171.0,"Pais":"Ecuador","Longitud":-79.7062,"Latitud":-0.6077,"Profundidad":86.478},{"id":"us6000j81n","Magnituud":5.0,"Place":"5 km ESE of Ayo","Fecha":1670541538208,"Ultimo registro":1676156598040,"Felt":1.0,"cdi":5.4,"mmi":null,"Posibilidad tsunami":0,"Importancia del evento":385,"Ids":",us6000j81n,","nst":57.0,"Distancia Horizontal Epicentro":3.209,"RMS":0.56,"Brecha Azimutal":106.0,"Pais":"Peru","Longitud":-72.2282,"Latitud":-15.7027,"Profundidad":10.0},{"id":"us6000j8sm","Magnituud":4.5,"Place":"149 km WSW of Puerto Santa","Fecha":1670401712671,"Ultimo registro":1676156603040,"Felt":null,"cdi":null,"mmi":null,"Posibilidad tsunami":0,"Importancia del evento":312,"Ids":",us6000j8sm,","nst":38.0,"Distancia Horizontal Epicentro":2.767,"RMS":0.82,"Brecha Azimutal":129.0,"Pais":"Peru","Longitud":-79.9176,"Latitud":-9.4706,"Profundidad":19.103},{"id":"us6000j6n4","Magnituud":4.8,"Place":"Peru-Bolivia border region","Fecha":1670067929201,"Ultimo registro":1676156583040,"Felt":null,"cdi":null,"mmi":null,"Posibilidad tsunami":0,"Importancia del evento":354,"Ids":",us6000j6n4,","nst":73.0,"Distancia Horizontal Epicentro":0.154,"RMS":0.63,"Brecha Azimutal":86.0,"Pais":null,"Longitud":-69.4939,"Latitud":-17.7438,"Profundidad":159.018},{"id":"us6000j5tn","Magnituud":4.3,"Place":"near the coast of northern Peru","Fecha":1669392612364,"Ultimo registro":1675058509040,"Felt":null,"cdi":null,"mmi":null,"Posibilidad tsunami":0,"Importancia del evento":284,"Ids":",us6000j5tn,","nst":22.0,"Distancia Horizontal Epicentro":3.945,"RMS":0.41,"Brecha Azimutal":118.0,"Pais":null,"Longitud":-80.4986,"Latitud":-6.0418,"Profundidad":45.297},{"id":"us7000is68","Magnituud":4.5,"Place":"near the coast of Ecuador","Fecha":1669318608776,"Ultimo registro":1675058496040,"Felt":null,"cdi":null,"mmi":null,"Posibilidad tsunami":0,"Importancia del evento":312,"Ids":",us7000is68,","nst":46.0,"Distancia Horizontal Epicentro":1.427,"RMS":1.09,"Brecha Azimutal":81.0,"Pais":null,"Longitud":-80.5615,"Latitud":-1.1651,"Profundidad":32.919},{"id":"us7000is44","Magnituud":4.9,"Place":"21 km NNW of Atico","Fecha":1669306943443,"Ultimo registro":1675058494040,"Felt":null,"cdi":null,"mmi":null,"Posibilidad tsunami":0,"Importancia del evento":369,"Ids":",us7000is44,","nst":125.0,"Distancia Horizontal Epicentro":3.97,"RMS":0.58,"Brecha Azimutal":86.0,"Pais":"Peru","Longitud":-73.7071,"Latitud":-16.031,"Profundidad":57.035},{"id":"us7000irw3","Magnituud":4.8,"Place":"48 km W of Puerto Santa","Fecha":1669233765664,"Ultimo registro":1675058479040,"Felt":null,"cdi":null,"mmi":null,"Posibilidad tsunami":0,"Importancia del evento":354,"Ids":",us7000irw3,","nst":62.0,"Distancia Horizontal Epicentro":2.008,"RMS":0.91,"Brecha Azimutal":94.0,"Pais":"Peru","Longitud":-79.0822,"Latitud":-9.0361,"Profundidad":71.917},{"id":"us7000irqr","Magnituud":4.5,"Place":"southern Peru","Fecha":1669176438002,"Ultimo registro":1675058466040,"Felt":null,"cdi":null,"mmi":null,"Posibilidad tsunami":0,"Importancia del evento":312,"Ids":",us7000irqr,","nst":46.0,"Distancia Horizontal Epicentro":2.234,"RMS":0.74,"Brecha Azimutal":83.0,"Pais":null,"Longitud":-70.4767,"Latitud":-15.5585,"Profundidad":211.536},{"id":"us7000irgf","Magnituud":4.6,"Place":"18 km N of Nu\u00f1oa","Fecha":1669094267113,"Ultimo registro":1675058449040,"Felt":null,"cdi":null,"mmi":null,"Posibilidad tsunami":0,"Importancia del evento":326,"Ids":",us7000irgf,","nst":44.0,"Distancia Horizontal Epicentro":3.118,"RMS":0.52,"Brecha Azimutal":134.0,"Pais":"Peru","Longitud":-70.6383,"Latitud":-14.31,"Profundidad":10.0},{"id":"us7000iqxu","Magnituud":4.5,"Place":null,"Fecha":1668840658517,"Ultimo registro":1675058407040,"Felt":1.0,"cdi":3.4,"mmi":null,"Posibilidad tsunami":0,"Importancia del evento":312,"Ids":",us7000iqxu,","nst":34.0,"Distancia Horizontal Epicentro":0.793,"RMS":0.83,"Brecha Azimutal":141.0,"Pais":null,"Longitud":-70.9345,"Latitud":-17.8092,"Profundidad":76.253},{"id":"us7000is30","Magnituud":4.1,"Place":"178 km NNE of Cruzeiro do Sul","Fecha":1668826969069,"Ultimo registro":1675058405040,"Felt":null,"cdi":null,"mmi":null,"Posibilidad tsunami":0,"Importancia del evento":259,"Ids":",us7000is30,","nst":21.0,"Distancia Horizontal Epicentro":1.7,"RMS":0.55,"Brecha Azimutal":59.0,"Pais":"Brazil","Longitud":-71.7809,"Latitud":-6.2889,"Profundidad":584.682},{"id":"us7000iqii","Magnituud":4.0,"Place":"41 km E of Arica","Fecha":1668707460850,"Ultimo registro":1674935903040,"Felt":null,"cdi":null,"mmi":null,"Posibilidad tsunami":0,"Importancia del evento":246,"Ids":",us7000iqii,","nst":18.0,"Distancia Horizontal Epicentro":0.393,"RMS":0.53,"Brecha Azimutal":75.0,"Pais":"Chile","Longitud":-69.9085,"Latitud":-18.4315,"Profundidad":89.162},{"id":"us7000iqb6","Magnituud":5.0,"Place":"28 km SSW of Palora","Fecha":1668658790414,"Ultimo registro":1674935900040,"Felt":4.0,"cdi":3.8,"mmi":null,"Posibilidad tsunami":0,"Importancia del evento":386,"Ids":",us7000iqb6,","nst":166.0,"Distancia Horizontal Epicentro":2.189,"RMS":0.7,"Brecha Azimutal":45.0,"Pais":"Ecuador","Longitud":-78.0817,"Latitud":-1.9348,"Profundidad":138.881},{"id":"us7000iq2c","Magnituud":4.5,"Place":"42 km ENE of Palora","Fecha":1668578122496,"Ultimo registro":1674935898040,"Felt":null,"cdi":null,"mmi":null,"Posibilidad tsunami":0,"Importancia del evento":312,"Ids":",us7000iq2c,","nst":54.0,"Distancia Horizontal Epicentro":1.974,"RMS":1.09,"Brecha Azimutal":92.0,"Pais":"Ecuador","Longitud":-77.6103,"Latitud":-1.5604,"Profundidad":180.482},{"id":"us7000ipsf","Magnituud":4.6,"Place":"95 km SSW of Paracas","Fecha":1668487056307,"Ultimo registro":1674935895040,"Felt":null,"cdi":null,"mmi":null,"Posibilidad tsunami":0,"Importancia del evento":326,"Ids":",us7000ipsf,","nst":56.0,"Distancia Horizontal Epicentro":2.733,"RMS":0.7,"Brecha Azimutal":69.0,"Pais":"Peru","Longitud":-76.4479,"Latitud":-14.71,"Profundidad":10.0},{"id":"us7000ip1g","Magnituud":4.9,"Place":"88 km SW of Tarauac\u00e1","Fecha":1668170085866,"Ultimo registro":1674329242040,"Felt":null,"cdi":null,"mmi":null,"Posibilidad tsunami":0,"Importancia del evento":369,"Ids":",pt22315001,us7000ip1g,","nst":99.0,"Distancia Horizontal Epicentro":1.538,"RMS":0.6,"Brecha Azimutal":62.0,"Pais":"Brazil","Longitud":-71.428,"Latitud":-8.612,"Profundidad":626.976},{"id":"us7000inni","Magnituud":4.3,"Place":"54 km SE of Calana","Fecha":1668029622487,"Ultimo registro":1674329237040,"Felt":null,"cdi":null,"mmi":null,"Posibilidad tsunami":0,"Importancia del evento":284,"Ids":",us7000inni,","nst":24.0,"Distancia Horizontal Epicentro":0.268,"RMS":0.81,"Brecha Azimutal":102.0,"Pais":"Peru","Longitud":-69.7704,"Latitud":-18.2382,"Profundidad":125.445},{"id":"us7000ine5","Magnituud":5.1,"Place":null,"Fecha":1667956510413,"Ultimo registro":1674329235040,"Felt":12.0,"cdi":3.9,"mmi":null,"Posibilidad tsunami":0,"Importancia del evento":405,"Ids":",us7000ine5,","nst":258.0,"Distancia Horizontal Epicentro":2.261,"RMS":0.61,"Brecha Azimutal":49.0,"Pais":null,"Longitud":-80.5466,"Latitud":-4.2315,"Profundidad":54.125},{"id":"us7000in5l","Magnituud":4.1,"Place":"Ecuador","Fecha":1667853640592,"Ultimo registro":1674329233040,"Felt":null,"cdi":null,"mmi":null,"Posibilidad tsunami":0,"Importancia del evento":259,"Ids":",us7000in5l,","nst":30.0,"Distancia Horizontal Epicentro":1.076,"RMS":0.85,"Brecha Azimutal":67.0,"Pais":null,"Longitud":-77.7544,"Latitud":-1.677,"Profundidad":182.62},{"id":"us7000imvt","Magnituud":5.0,"Place":"Southern Peru","Fecha":1667718487185,"Ultimo registro":1674329230040,"Felt":null,"cdi":null,"mmi":null,"Posibilidad tsunami":0,"Importancia del evento":385,"Ids":",us7000imvt,","nst":49.0,"Distancia Horizontal Epicentro":0.703,"RMS":0.53,"Brecha Azimutal":134.0,"Pais":null,"Longitud":-70.2162,"Latitud":-17.5594,"Profundidad":28.896},{"id":"us7000imfm","Magnituud":4.4,"Place":"33 km E of Palca","Fecha":1667540443095,"Ultimo registro":1673565084040,"Felt":null,"cdi":null,"mmi":null,"Posibilidad tsunami":0,"Importancia del evento":298,"Ids":",us7000imfm,","nst":33.0,"Distancia Horizontal Epicentro":0.282,"RMS":0.5,"Brecha Azimutal":111.0,"Pais":"Peru","Longitud":-69.6521,"Latitud":-17.8207,"Profundidad":154.541},{"id":"us7000inbm","Magnituud":4.4,"Place":"5 km SE of Yanaca","Fecha":1667508995023,"Ultimo registro":1673565099040,"Felt":null,"cdi":null,"mmi":null,"Posibilidad tsunami":0,"Importancia del evento":298,"Ids":",us7000inbm,","nst":25.0,"Distancia Horizontal Epicentro":4.268,"RMS":0.59,"Brecha Azimutal":82.0,"Pais":"Peru","Longitud":-73.1249,"Latitud":-14.2593,"Profundidad":77.47},{"id":"us7000im3c","Magnituud":4.5,"Place":"11 km NW of Tablazo Norte","Fecha":1667438065645,"Ultimo registro":1673565066040,"Felt":1.0,"cdi":2.0,"mmi":null,"Posibilidad tsunami":0,"Importancia del evento":312,"Ids":",us7000im3c,","nst":39.0,"Distancia Horizontal Epicentro":1.917,"RMS":0.7,"Brecha Azimutal":62.0,"Pais":"Peru","Longitud":-80.8436,"Latitud":-5.3137,"Profundidad":49.982},{"id":"us7000ilwy","Magnituud":4.6,"Place":"117 km N of Alianza Cristiana","Fecha":1667365603780,"Ultimo registro":1673565061040,"Felt":null,"cdi":null,"mmi":null,"Posibilidad tsunami":0,"Importancia del evento":326,"Ids":",us7000ilwy,","nst":63.0,"Distancia Horizontal Epicentro":2.664,"RMS":0.88,"Brecha Azimutal":85.0,"Pais":"Peru","Longitud":-76.2688,"Latitud":-2.428,"Profundidad":149.645},{"id":"us7000ilpa","Magnituud":4.4,"Place":"20 km SSW of Huarmey","Fecha":1667306850978,"Ultimo registro":1673565055040,"Felt":null,"cdi":null,"mmi":null,"Posibilidad tsunami":0,"Importancia del evento":298,"Ids":",us7000ilpa,","nst":33.0,"Distancia Horizontal Epicentro":2.2,"RMS":0.47,"Brecha Azimutal":143.0,"Pais":"Peru","Longitud":-78.2186,"Latitud":-10.2403,"Profundidad":88.67},{"id":"us7000ilhf","Magnituud":4.8,"Place":"61 km WSW of Santiago","Fecha":1667225908930,"Ultimo registro":1673565048040,"Felt":null,"cdi":null,"mmi":null,"Posibilidad tsunami":0,"Importancia del evento":354,"Ids":",us7000ilhf,","nst":43.0,"Distancia Horizontal Epicentro":2.558,"RMS":0.69,"Brecha Azimutal":141.0,"Pais":"Peru","Longitud":-76.1953,"Latitud":-14.4814,"Profundidad":18.952},{"id":"us7000ilh2","Magnituud":5.0,"Place":"31 km W of Santiago","Fecha":1667222745846,"Ultimo registro":1673565047040,"Felt":3.0,"cdi":2.6,"mmi":null,"Posibilidad tsunami":0,"Importancia del evento":385,"Ids":",us7000ilh2,","nst":53.0,"Distancia Horizontal Epicentro":2.369,"RMS":0.63,"Brecha Azimutal":141.0,"Pais":"Peru","Longitud":-76.0005,"Latitud":-14.223,"Profundidad":33.662},{"id":"us7000ilgs","Magnituud":5.6,"Place":"119 km N of Alianza Cristiana","Fecha":1667222564105,"Ultimo registro":1673565046040,"Felt":1.0,"cdi":2.0,"mmi":3.654,"Posibilidad tsunami":0,"Importancia del evento":483,"Ids":",us7000ilgs,usauto7000ilgs,pt22304001,","nst":90.0,"Distancia Horizontal Epicentro":2.677,"RMS":0.57,"Brecha Azimutal":84.0,"Pais":"Peru","Longitud":-76.2393,"Latitud":-2.4103,"Profundidad":149.348},{"id":"us7000iley","Magnituud":4.4,"Place":"51 km WSW of Atico","Fecha":1667188202856,"Ultimo registro":1673565043040,"Felt":null,"cdi":null,"mmi":null,"Posibilidad tsunami":0,"Importancia del evento":298,"Ids":",us7000iley,","nst":18.0,"Distancia Horizontal Epicentro":4.126,"RMS":0.37,"Brecha Azimutal":147.0,"Pais":"Peru","Longitud":-74.0939,"Latitud":-16.3138,"Profundidad":33.357},{"id":"us7000ile6","Magnituud":4.6,"Place":"118 km SW of Santiago","Fecha":1667172285324,"Ultimo registro":1673565042040,"Felt":null,"cdi":null,"mmi":null,"Posibilidad tsunami":0,"Importancia del evento":326,"Ids":",us7000ile6,","nst":31.0,"Distancia Horizontal Epicentro":2.937,"RMS":0.88,"Brecha Azimutal":149.0,"Pais":"Peru","Longitud":-76.5098,"Latitud":-14.9239,"Profundidad":10.0},{"id":"us7000ilbn","Magnituud":4.6,"Place":"14 km ENE of Lluta","Fecha":1667135025759,"Ultimo registro":1673565037040,"Felt":null,"cdi":null,"mmi":null,"Posibilidad tsunami":0,"Importancia del evento":326,"Ids":",us7000ilbn,","nst":42.0,"Distancia Horizontal Epicentro":2.796,"RMS":0.72,"Brecha Azimutal":128.0,"Pais":"Peru","Longitud":-71.8862,"Latitud":-15.9824,"Profundidad":138.155},{"id":"us7000il8a","Magnituud":4.8,"Place":null,"Fecha":1667082245064,"Ultimo registro":1673565034040,"Felt":1.0,"cdi":3.3,"mmi":null,"Posibilidad tsunami":0,"Importancia del evento":355,"Ids":",us7000il8a,","nst":59.0,"Distancia Horizontal Epicentro":2.507,"RMS":0.61,"Brecha Azimutal":104.0,"Pais":null,"Longitud":-76.1413,"Latitud":-14.4147,"Profundidad":10.0},{"id":"us7000il86","Magnituud":4.9,"Place":"61 km WSW of Santiago","Fecha":1667082151126,"Ultimo registro":1673565034040,"Felt":null,"cdi":null,"mmi":null,"Posibilidad tsunami":0,"Importancia del evento":369,"Ids":",us7000il86,","nst":91.0,"Distancia Horizontal Epicentro":2.495,"RMS":0.48,"Brecha Azimutal":99.0,"Pais":"Peru","Longitud":-76.2242,"Latitud":-14.4238,"Profundidad":10.0},{"id":"us7000il84","Magnituud":4.5,"Place":"southern Peru","Fecha":1667081918248,"Ultimo registro":1673565033040,"Felt":null,"cdi":null,"mmi":null,"Posibilidad tsunami":0,"Importancia del evento":312,"Ids":",us7000il84,","nst":32.0,"Distancia Horizontal Epicentro":2.511,"RMS":1.02,"Brecha Azimutal":102.0,"Pais":null,"Longitud":-70.7495,"Latitud":-15.3808,"Profundidad":184.565},{"id":"us7000il7q","Magnituud":5.1,"Place":"53 km WSW of Santiago","Fecha":1667076335345,"Ultimo registro":1673565032040,"Felt":null,"cdi":null,"mmi":null,"Posibilidad tsunami":0,"Importancia del evento":400,"Ids":",us7000il7q,","nst":127.0,"Distancia Horizontal Epicentro":2.476,"RMS":0.66,"Brecha Azimutal":103.0,"Pais":"Peru","Longitud":-76.1584,"Latitud":-14.3867,"Profundidad":26.376},{"id":"us7000il6h","Magnituud":4.3,"Place":"109 km SSW of Paracas","Fecha":1667054235842,"Ultimo registro":1673565030040,"Felt":null,"cdi":null,"mmi":null,"Posibilidad tsunami":0,"Importancia del evento":284,"Ids":",us7000il6h,","nst":18.0,"Distancia Horizontal Epicentro":2.81,"RMS":0.96,"Brecha Azimutal":186.0,"Pais":"Peru","Longitud":-76.6031,"Latitud":-14.8042,"Profundidad":10.0},{"id":"us7000il6c","Magnituud":4.7,"Place":"86 km S of Paracas","Fecha":1667053045493,"Ultimo registro":1673565030040,"Felt":null,"cdi":null,"mmi":null,"Posibilidad tsunami":0,"Importancia del evento":340,"Ids":",us7000il6c,","nst":18.0,"Distancia Horizontal Epicentro":7.575,"RMS":1.21,"Brecha Azimutal":144.0,"Pais":"Peru","Longitud":-76.4096,"Latitud":-14.6331,"Profundidad":10.0},{"id":"us7000il4y","Magnituud":4.6,"Place":"84 km SW of Santiago","Fecha":1667028711607,"Ultimo registro":1673565028040,"Felt":null,"cdi":null,"mmi":null,"Posibilidad tsunami":0,"Importancia del evento":326,"Ids":",us7000il4y,","nst":24.0,"Distancia Horizontal Epicentro":2.708,"RMS":0.8,"Brecha Azimutal":148.0,"Pais":"Peru","Longitud":-76.3166,"Latitud":-14.663,"Profundidad":21.645},{"id":"us7000il3v","Magnituud":4.5,"Place":"65 km S of Paracas","Fecha":1667013984769,"Ultimo registro":1673565027040,"Felt":null,"cdi":null,"mmi":null,"Posibilidad tsunami":0,"Importancia del evento":312,"Ids":",us7000il3v,","nst":28.0,"Distancia Horizontal Epicentro":2.519,"RMS":0.89,"Brecha Azimutal":143.0,"Pais":"Peru","Longitud":-76.2549,"Latitud":-14.4552,"Profundidad":19.97},{"id":"us7000il3b","Magnituud":4.3,"Place":"near the coast of central Peru","Fecha":1667003970069,"Ultimo registro":1673565026040,"Felt":null,"cdi":null,"mmi":null,"Posibilidad tsunami":0,"Importancia del evento":284,"Ids":",us7000il3b,","nst":30.0,"Distancia Horizontal Epicentro":2.737,"RMS":0.94,"Brecha Azimutal":148.0,"Pais":null,"Longitud":-76.3695,"Latitud":-14.7016,"Profundidad":10.0},{"id":"us7000il39","Magnituud":4.9,"Place":"60 km S of Paracas","Fecha":1667002418568,"Ultimo registro":1673565026040,"Felt":null,"cdi":null,"mmi":null,"Posibilidad tsunami":0,"Importancia del evento":369,"Ids":",us7000il39,","nst":46.0,"Distancia Horizontal Epicentro":2.464,"RMS":0.62,"Brecha Azimutal":106.0,"Pais":"Peru","Longitud":-76.3282,"Latitud":-14.4142,"Profundidad":10.0},{"id":"us7000il35","Magnituud":5.8,"Place":"66 km WSW of Santiago","Fecha":1667002187791,"Ultimo registro":1673565026040,"Felt":2.0,"cdi":3.1,"mmi":5.438,"Posibilidad tsunami":0,"Importancia del evento":518,"Ids":",us7000il35,usauto7000il35,","nst":136.0,"Distancia Horizontal Epicentro":2.581,"RMS":0.57,"Brecha Azimutal":98.0,"Pais":"Peru","Longitud":-76.2261,"Latitud":-14.5133,"Profundidad":15.0},{"id":"us7000il34","Magnituud":4.8,"Place":null,"Fecha":1667002169081,"Ultimo registro":1673565026040,"Felt":null,"cdi":null,"mmi":null,"Posibilidad tsunami":0,"Importancia del evento":354,"Ids":",us7000il34,","nst":68.0,"Distancia Horizontal Epicentro":2.727,"RMS":0.88,"Brecha Azimutal":70.0,"Pais":null,"Longitud":-76.2302,"Latitud":-14.6643,"Profundidad":10.0},{"id":"us7000il2t","Magnituud":5.2,"Place":"66 km SW of Santiago","Fecha":1667000113898,"Ultimo registro":1672759428040,"Felt":null,"cdi":null,"mmi":null,"Posibilidad tsunami":0,"Importancia del evento":416,"Ids":",usauto7000il2t,us7000il2t,","nst":92.0,"Distancia Horizontal Epicentro":2.589,"RMS":0.49,"Brecha Azimutal":93.0,"Pais":"Peru","Longitud":-76.2201,"Latitud":-14.52,"Profundidad":10.0},{"id":"us7000il2n","Magnituud":4.6,"Place":"36 km SSE of Alianza Cristiana","Fecha":1666999199619,"Ultimo registro":1672759428040,"Felt":null,"cdi":null,"mmi":null,"Posibilidad tsunami":0,"Importancia del evento":326,"Ids":",us7000il2n,","nst":28.0,"Distancia Horizontal Epicentro":2.855,"RMS":0.64,"Brecha Azimutal":107.0,"Pais":"Peru","Longitud":-76.2845,"Latitud":-3.7733,"Profundidad":108.034},{"id":"us7000im0g","Magnituud":4.7,"Place":null,"Fecha":1666997689547,"Ultimo registro":1672759431040,"Felt":null,"cdi":null,"mmi":null,"Posibilidad tsunami":0,"Importancia del evento":340,"Ids":",us7000im0g,","nst":23.0,"Distancia Horizontal Epicentro":2.458,"RMS":0.59,"Brecha Azimutal":102.0,"Pais":null,"Longitud":-76.3812,"Latitud":-14.4187,"Profundidad":10.0},{"id":"us7000il2e","Magnituud":5.2,"Place":"62 km SW of Santiago","Fecha":1666997536068,"Ultimo registro":1672759428040,"Felt":1.0,"cdi":2.0,"mmi":null,"Posibilidad tsunami":0,"Importancia del evento":416,"Ids":",us7000il2e,usauto7000il2e,","nst":123.0,"Distancia Horizontal Epicentro":2.625,"RMS":0.51,"Brecha Azimutal":98.0,"Pais":"Peru","Longitud":-76.1611,"Latitud":-14.5431,"Profundidad":8.685},{"id":"us7000im0h","Magnituud":4.5,"Place":"77 km S of Paracas","Fecha":1666988833875,"Ultimo registro":1672759431040,"Felt":null,"cdi":null,"mmi":null,"Posibilidad tsunami":0,"Importancia del evento":312,"Ids":",us7000im0h,","nst":19.0,"Distancia Horizontal Epicentro":2.593,"RMS":0.57,"Brecha Azimutal":148.0,"Pais":"Peru","Longitud":-76.3838,"Latitud":-14.5573,"Profundidad":10.0},{"id":"us7000il1g","Magnituud":5.9,"Place":"62 km SW of Santiago","Fecha":1666988525733,"Ultimo registro":1672759428040,"Felt":8.0,"cdi":3.1,"mmi":5.802,"Posibilidad tsunami":0,"Importancia del evento":538,"Ids":",us7000il1g,usauto7000il1g,pt22301000,at00rkhcky,","nst":338.0,"Distancia Horizontal Epicentro":2.603,"RMS":0.64,"Brecha Azimutal":50.0,"Pais":"Peru","Longitud":-76.1705,"Latitud":-14.5218,"Profundidad":14.0},{"id":"us7000il14","Magnituud":4.6,"Place":"44 km SW of Santiago","Fecha":1666984750470,"Ultimo registro":1672759428040,"Felt":null,"cdi":null,"mmi":null,"Posibilidad tsunami":0,"Importancia del evento":326,"Ids":",us7000il14,","nst":70.0,"Distancia Horizontal Epicentro":2.648,"RMS":0.68,"Brecha Azimutal":121.0,"Pais":"Peru","Longitud":-75.9568,"Latitud":-14.5069,"Profundidad":39.541},{"id":"us7000il11","Magnituud":4.4,"Place":"74 km SW of Santiago","Fecha":1666984576434,"Ultimo registro":1672759427040,"Felt":null,"cdi":null,"mmi":null,"Posibilidad tsunami":0,"Importancia del evento":298,"Ids":",us7000il11,","nst":34.0,"Distancia Horizontal Epicentro":2.7,"RMS":0.55,"Brecha Azimutal":138.0,"Pais":"Peru","Longitud":-76.229,"Latitud":-14.6361,"Profundidad":10.0},{"id":"us7000il0u","Magnituud":4.5,"Place":"72 km E of Palca","Fecha":1666981981312,"Ultimo registro":1672759427040,"Felt":null,"cdi":null,"mmi":null,"Posibilidad tsunami":0,"Importancia del evento":312,"Ids":",us7000il0u,","nst":21.0,"Distancia Horizontal Epicentro":0.204,"RMS":1.0,"Brecha Azimutal":74.0,"Pais":"Peru","Longitud":-69.2882,"Latitud":-17.6795,"Profundidad":155.249},{"id":"us7000ikxk","Magnituud":4.7,"Place":"63 km WSW of Santiago","Fecha":1666966881098,"Ultimo registro":1672759424040,"Felt":null,"cdi":null,"mmi":null,"Posibilidad tsunami":0,"Importancia del evento":340,"Ids":",us7000ikxk,","nst":70.0,"Distancia Horizontal Epicentro":2.547,"RMS":0.42,"Brecha Azimutal":132.0,"Pais":"Peru","Longitud":-76.2205,"Latitud":-14.4762,"Profundidad":10.0},{"id":"us7000ikwq","Magnituud":4.5,"Place":"69 km S of Paracas","Fecha":1666954606720,"Ultimo registro":1672759424040,"Felt":null,"cdi":null,"mmi":null,"Posibilidad tsunami":0,"Importancia del evento":312,"Ids":",us7000ikwq,","nst":38.0,"Distancia Horizontal Epicentro":2.544,"RMS":0.37,"Brecha Azimutal":148.0,"Pais":"Peru","Longitud":-76.3037,"Latitud":-14.4924,"Profundidad":13.94},{"id":"us7000il0i","Magnituud":4.6,"Place":"near the coast of central Peru","Fecha":1666948620780,"Ultimo registro":1672759427040,"Felt":null,"cdi":null,"mmi":null,"Posibilidad tsunami":0,"Importancia del evento":326,"Ids":",us7000il0i,","nst":47.0,"Distancia Horizontal Epicentro":2.577,"RMS":0.39,"Brecha Azimutal":141.0,"Pais":null,"Longitud":-75.9441,"Latitud":-14.4266,"Profundidad":35.0},{"id":"us7000ikw8","Magnituud":4.9,"Place":"67 km WSW of Santiago","Fecha":1666948314617,"Ultimo registro":1672759424040,"Felt":3.0,"cdi":3.8,"mmi":null,"Posibilidad tsunami":0,"Importancia del evento":371,"Ids":",us7000ikw8,","nst":85.0,"Distancia Horizontal Epicentro":2.579,"RMS":0.43,"Brecha Azimutal":130.0,"Pais":"Peru","Longitud":-76.2365,"Latitud":-14.5129,"Profundidad":21.642},{"id":"us7000ilrk","Magnituud":4.2,"Place":"71 km WNW of M\u00f3rrope","Fecha":1666898688988,"Ultimo registro":1672759430040,"Felt":null,"cdi":null,"mmi":null,"Posibilidad tsunami":0,"Importancia del evento":271,"Ids":",us7000ilrk,","nst":21.0,"Distancia Horizontal Epicentro":2.859,"RMS":0.75,"Brecha Azimutal":149.0,"Pais":"Peru","Longitud":-80.6395,"Latitud":-6.3676,"Profundidad":58.797},{"id":"us7000ikgd","Magnituud":4.6,"Place":"125 km W of San Juan","Fecha":1666779097540,"Ultimo registro":1672759420040,"Felt":null,"cdi":null,"mmi":null,"Posibilidad tsunami":0,"Importancia del evento":326,"Ids":",us7000ikgd,","nst":36.0,"Distancia Horizontal Epicentro":3.389,"RMS":0.59,"Brecha Azimutal":174.0,"Pais":"Peru","Longitud":-76.3331,"Latitud":-15.3605,"Profundidad":10.0},{"id":"us7000ikg9","Magnituud":4.5,"Place":"Peru-Ecuador border region","Fecha":1666777522100,"Ultimo registro":1672759420040,"Felt":1.0,"cdi":2.7,"mmi":null,"Posibilidad tsunami":0,"Importancia del evento":312,"Ids":",us7000ikg9,","nst":35.0,"Distancia Horizontal Epicentro":0.853,"RMS":0.72,"Brecha Azimutal":140.0,"Pais":null,"Longitud":-80.7856,"Latitud":-4.0126,"Profundidad":42.031},{"id":"us7000iker","Magnituud":4.4,"Place":"5 km NNE of Huangala","Fecha":1666753573342,"Ultimo registro":1672759420040,"Felt":0.0,"cdi":1.0,"mmi":null,"Posibilidad tsunami":0,"Importancia del evento":298,"Ids":",us7000iker,","nst":52.0,"Distancia Horizontal Epicentro":1.341,"RMS":0.54,"Brecha Azimutal":90.0,"Pais":"Peru","Longitud":-80.5835,"Latitud":-4.7937,"Profundidad":59.377},{"id":"us6000iw0p","Magnituud":5.0,"Place":"51 km SE of Pajarillo","Fecha":1666587881708,"Ultimo registro":1672759415040,"Felt":1.0,"cdi":2.2,"mmi":null,"Posibilidad tsunami":0,"Importancia del evento":385,"Ids":",us6000iw0p,","nst":237.0,"Distancia Horizontal Epicentro":2.093,"RMS":0.54,"Brecha Azimutal":88.0,"Pais":"Peru","Longitud":-76.3087,"Latitud":-7.4551,"Profundidad":116.5},{"id":"us6000ivky","Magnituud":4.5,"Place":"near the coast of northern Peru","Fecha":1666376752064,"Ultimo registro":1672527828040,"Felt":1.0,"cdi":2.0,"mmi":null,"Posibilidad tsunami":0,"Importancia del evento":312,"Ids":",us6000ivky,","nst":39.0,"Distancia Horizontal Epicentro":2.694,"RMS":1.11,"Brecha Azimutal":68.0,"Pais":null,"Longitud":-81.0348,"Latitud":-6.5122,"Profundidad":19.073},{"id":"us6000ivgz","Magnituud":4.2,"Place":"81 km E of Arica","Fecha":1666349619799,"Ultimo registro":1672527798040,"Felt":null,"cdi":null,"mmi":null,"Posibilidad tsunami":0,"Importancia del evento":271,"Ids":",us6000ivgz,","nst":36.0,"Distancia Horizontal Epicentro":0.108,"RMS":0.58,"Brecha Azimutal":59.0,"Pais":"Chile","Longitud":-69.5271,"Latitud":-18.4416,"Profundidad":133.197},{"id":"us6000iuys","Magnituud":4.6,"Place":"34 km E of Palora","Fecha":1666216523984,"Ultimo registro":1672527820040,"Felt":1.0,"cdi":2.0,"mmi":null,"Posibilidad tsunami":0,"Importancia del evento":326,"Ids":",us6000iuys,","nst":113.0,"Distancia Horizontal Epicentro":0.392,"RMS":0.78,"Brecha Azimutal":48.0,"Pais":"Ecuador","Longitud":-77.6628,"Latitud":-1.6438,"Profundidad":181.838},{"id":"us6000iuua","Magnituud":4.2,"Place":"11 km SW of Milagro","Fecha":1666186464220,"Ultimo registro":1672527819040,"Felt":null,"cdi":null,"mmi":null,"Posibilidad tsunami":0,"Importancia del evento":271,"Ids":",us6000iuua,","nst":44.0,"Distancia Horizontal Epicentro":0.112,"RMS":0.39,"Brecha Azimutal":120.0,"Pais":"Ecuador","Longitud":-79.6636,"Latitud":-2.2165,"Profundidad":83.687},{"id":"us6000iuad","Magnituud":5.2,"Place":"Tarapaca","Fecha":1666013902671,"Ultimo registro":1672527804040,"Felt":4.0,"cdi":2.7,"mmi":null,"Posibilidad tsunami":0,"Importancia del evento":417,"Ids":",us6000iuad,","nst":90.0,"Distancia Horizontal Epicentro":0.246,"RMS":0.64,"Brecha Azimutal":55.0,"Pais":"Chile","Longitud":-69.2668,"Latitud":-18.4248,"Profundidad":130.736},{"id":"us6000iu9l","Magnituud":4.2,"Place":"14 km WSW of Mala","Fecha":1665999496621,"Ultimo registro":1672527816040,"Felt":3.0,"cdi":3.8,"mmi":null,"Posibilidad tsunami":0,"Importancia del evento":273,"Ids":",us6000iu9l,","nst":16.0,"Distancia Horizontal Epicentro":0.728,"RMS":0.67,"Brecha Azimutal":193.0,"Pais":"Peru","Longitud":-76.7555,"Latitud":-12.7146,"Profundidad":46.78},{"id":"us6000itwi","Magnituud":4.7,"Place":"3 km SSW of Guayaquil","Fecha":1665819593073,"Ultimo registro":1672527813040,"Felt":17.0,"cdi":4.9,"mmi":null,"Posibilidad tsunami":0,"Importancia del evento":348,"Ids":",us6000itwi,","nst":104.0,"Distancia Horizontal Epicentro":1.26,"RMS":0.8,"Brecha Azimutal":131.0,"Pais":"Ecuador","Longitud":-79.9025,"Latitud":-2.2212,"Profundidad":72.292},{"id":"us6000itvx","Magnituud":4.4,"Place":"Southern Peru","Fecha":1665812228191,"Ultimo registro":1672527813040,"Felt":null,"cdi":null,"mmi":null,"Posibilidad tsunami":0,"Importancia del evento":298,"Ids":",us6000itvx,","nst":34.0,"Distancia Horizontal Epicentro":0.656,"RMS":1.03,"Brecha Azimutal":138.0,"Pais":null,"Longitud":-70.1349,"Latitud":-17.3886,"Profundidad":129.222},{"id":"us6000itvu","Magnituud":4.5,"Place":"Peru-Ecuador border region","Fecha":1665811391862,"Ultimo registro":1672527813040,"Felt":2.0,"cdi":3.8,"mmi":null,"Posibilidad tsunami":0,"Importancia del evento":312,"Ids":",us6000itvu,","nst":48.0,"Distancia Horizontal Epicentro":0.822,"RMS":0.48,"Brecha Azimutal":144.0,"Pais":null,"Longitud":-80.8095,"Latitud":-3.907,"Profundidad":50.494},{"id":"us6000iujx","Magnituud":4.7,"Place":"central Peru","Fecha":1665597432635,"Ultimo registro":1671317660040,"Felt":null,"cdi":null,"mmi":null,"Posibilidad tsunami":0,"Importancia del evento":340,"Ids":",us6000iujx,","nst":28.0,"Distancia Horizontal Epicentro":1.492,"RMS":0.74,"Brecha Azimutal":99.0,"Pais":null,"Longitud":-75.3951,"Latitud":-12.4656,"Profundidad":98.397},{"id":"us6000isx3","Magnituud":4.1,"Place":"11 km SW of Iray","Fecha":1665546881478,"Ultimo registro":1671317636040,"Felt":null,"cdi":null,"mmi":null,"Posibilidad tsunami":0,"Importancia del evento":259,"Ids":",us6000isx3,","nst":24.0,"Distancia Horizontal Epicentro":3.323,"RMS":0.65,"Brecha Azimutal":132.0,"Pais":"Peru","Longitud":-72.7095,"Latitud":-15.9249,"Profundidad":91.964},{"id":"us6000isgc","Magnituud":4.3,"Place":"Peru-Bolivia border region","Fecha":1665400238058,"Ultimo registro":1671317629040,"Felt":null,"cdi":null,"mmi":null,"Posibilidad tsunami":0,"Importancia del evento":284,"Ids":",us6000isgc,","nst":25.0,"Distancia Horizontal Epicentro":0.077,"RMS":0.32,"Brecha Azimutal":99.0,"Pais":null,"Longitud":-69.5405,"Latitud":-17.5379,"Profundidad":169.213},{"id":"us6000is17","Magnituud":4.4,"Place":"67 km W of Huarmey","Fecha":1665206155137,"Ultimo registro":1671317621040,"Felt":null,"cdi":null,"mmi":null,"Posibilidad tsunami":0,"Importancia del evento":298,"Ids":",us6000is17,","nst":28.0,"Distancia Horizontal Epicentro":2.607,"RMS":0.44,"Brecha Azimutal":149.0,"Pais":"Peru","Longitud":-78.7581,"Latitud":-10.1708,"Profundidad":46.569},{"id":"us6000irvl","Magnituud":4.3,"Place":"54 km NW of Manta","Fecha":1665154516693,"Ultimo registro":1670712833040,"Felt":null,"cdi":null,"mmi":null,"Posibilidad tsunami":0,"Importancia del evento":284,"Ids":",us6000irvl,","nst":41.0,"Distancia Horizontal Epicentro":2.336,"RMS":0.37,"Brecha Azimutal":152.0,"Pais":"Ecuador","Longitud":-81.0246,"Latitud":-0.5854,"Profundidad":10.0},{"id":"us6000irkf","Magnituud":4.3,"Place":"27 km SSW of Palora","Fecha":1665071807958,"Ultimo registro":1670712813040,"Felt":null,"cdi":null,"mmi":null,"Posibilidad tsunami":0,"Importancia del evento":284,"Ids":",us6000irkf,","nst":27.0,"Distancia Horizontal Epicentro":0.431,"RMS":1.04,"Brecha Azimutal":67.0,"Pais":"Ecuador","Longitud":-78.0757,"Latitud":-1.9239,"Profundidad":160.383},{"id":"us6000isqw","Magnituud":4.3,"Place":"52 km N of Pucallpa","Fecha":1665002770373,"Ultimo registro":1670712843040,"Felt":null,"cdi":null,"mmi":null,"Posibilidad tsunami":0,"Importancia del evento":284,"Ids":",us6000isqw,","nst":31.0,"Distancia Horizontal Epicentro":1.824,"RMS":1.04,"Brecha Azimutal":55.0,"Pais":"Peru","Longitud":-74.5376,"Latitud":-7.9044,"Profundidad":158.591},{"id":"us6000ir0b","Magnituud":5.8,"Place":"1 km S of Huangala","Fecha":1664958379474,"Ultimo registro":1670814230779,"Felt":9.0,"cdi":7.7,"mmi":5.956,"Posibilidad tsunami":0,"Importancia del evento":657,"Ids":",us6000ir0b,usauto6000ir0b,pt22278001,","nst":114.0,"Distancia Horizontal Epicentro":1.403,"RMS":0.94,"Brecha Azimutal":36.0,"Pais":"Peru","Longitud":-80.5995,"Latitud":-4.8548,"Profundidad":35.0},{"id":"us6000iqll","Magnituud":4.5,"Place":"near the coast of northern Peru","Fecha":1664851817971,"Ultimo registro":1670712784040,"Felt":null,"cdi":null,"mmi":null,"Posibilidad tsunami":0,"Importancia del evento":312,"Ids":",us6000iqll,","nst":22.0,"Distancia Horizontal Epicentro":2.681,"RMS":0.36,"Brecha Azimutal":149.0,"Pais":null,"Longitud":-78.5799,"Latitud":-9.907,"Profundidad":45.895},{"id":"us6000iqes","Magnituud":4.4,"Place":"35 km S of Playas","Fecha":1664802894392,"Ultimo registro":1670712778040,"Felt":null,"cdi":null,"mmi":null,"Posibilidad tsunami":0,"Importancia del evento":298,"Ids":",us6000iqes,","nst":19.0,"Distancia Horizontal Epicentro":0.654,"RMS":0.4,"Brecha Azimutal":132.0,"Pais":"Ecuador","Longitud":-80.3428,"Latitud":-2.9509,"Profundidad":47.005},{"id":"us6000iqbk","Magnituud":4.5,"Place":"65 km ESE of Uchiza","Fecha":1664762439024,"Ultimo registro":1670712772040,"Felt":0.0,"cdi":1.0,"mmi":null,"Posibilidad tsunami":0,"Importancia del evento":312,"Ids":",us6000iqbk,","nst":34.0,"Distancia Horizontal Epicentro":3.461,"RMS":0.47,"Brecha Azimutal":96.0,"Pais":"Peru","Longitud":-75.8969,"Latitud":-8.6326,"Profundidad":10.0},{"id":"us6000iqbf","Magnituud":4.6,"Place":"64 km ESE of Uchiza","Fecha":1664761728907,"Ultimo registro":1670712772040,"Felt":null,"cdi":null,"mmi":null,"Posibilidad tsunami":0,"Importancia del evento":326,"Ids":",us6000iqbf,","nst":39.0,"Distancia Horizontal Epicentro":2.885,"RMS":0.43,"Brecha Azimutal":102.0,"Pais":"Peru","Longitud":-75.9074,"Latitud":-8.6466,"Profundidad":10.0},{"id":"us6000irth","Magnituud":4.2,"Place":"Near the coast of southern Peru","Fecha":1664697313606,"Ultimo registro":1670712824040,"Felt":null,"cdi":null,"mmi":null,"Posibilidad tsunami":0,"Importancia del evento":271,"Ids":",us6000irth,","nst":17.0,"Distancia Horizontal Epicentro":4.536,"RMS":0.55,"Brecha Azimutal":106.0,"Pais":null,"Longitud":-74.0013,"Latitud":-15.6087,"Profundidad":59.383},{"id":"us6000ipxd","Magnituud":4.7,"Place":"47 km N of Pucallpa","Fecha":1664605434801,"Ultimo registro":1670712749040,"Felt":1.0,"cdi":4.8,"mmi":null,"Posibilidad tsunami":0,"Importancia del evento":340,"Ids":",us6000ipxd,","nst":56.0,"Distancia Horizontal Epicentro":1.822,"RMS":0.86,"Brecha Azimutal":98.0,"Pais":"Peru","Longitud":-74.5299,"Latitud":-7.9533,"Profundidad":152.392},{"id":"us6000ipm5","Magnituud":4.6,"Place":"106 km SSW of San Juan","Fecha":1664539768960,"Ultimo registro":1670104968040,"Felt":null,"cdi":null,"mmi":null,"Posibilidad tsunami":0,"Importancia del evento":326,"Ids":",us6000ipm5,","nst":41.0,"Distancia Horizontal Epicentro":4.461,"RMS":0.59,"Brecha Azimutal":138.0,"Pais":"Peru","Longitud":-75.4886,"Latitud":-16.276,"Profundidad":10.0},{"id":"us6000ip2d","Magnituud":4.6,"Place":"17 km SW of Pampachiri","Fecha":1664395439521,"Ultimo registro":1670104956040,"Felt":null,"cdi":null,"mmi":null,"Posibilidad tsunami":0,"Importancia del evento":326,"Ids":",us6000ip2d,","nst":57.0,"Distancia Horizontal Epicentro":3.838,"RMS":1.15,"Brecha Azimutal":86.0,"Pais":"Peru","Longitud":-73.6718,"Latitud":-14.2805,"Profundidad":82.919},{"id":"us6000iny1","Magnituud":4.4,"Place":"74 km WNW of Alianza Cristiana","Fecha":1664358792116,"Ultimo registro":1670104954040,"Felt":null,"cdi":null,"mmi":null,"Posibilidad tsunami":0,"Importancia del evento":298,"Ids":",us6000iny1,","nst":33.0,"Distancia Horizontal Epicentro":1.91,"RMS":0.82,"Brecha Azimutal":108.0,"Pais":"Peru","Longitud":-77.0086,"Latitud":-3.1211,"Profundidad":57.812},{"id":"us7000iam8","Magnituud":4.3,"Place":"20 km NE of Santa Elena","Fecha":1663976681750,"Ultimo registro":1669496280040,"Felt":null,"cdi":null,"mmi":null,"Posibilidad tsunami":0,"Importancia del evento":284,"Ids":",us7000iam8,","nst":35.0,"Distancia Horizontal Epicentro":1.577,"RMS":0.64,"Brecha Azimutal":143.0,"Pais":"Ecuador","Longitud":-80.7245,"Latitud":-2.1042,"Profundidad":32.14},{"id":"us7000iait","Magnituud":4.6,"Place":"116 km WSW of Santiago de Cao","Fecha":1663955937783,"Ultimo registro":1669496279040,"Felt":null,"cdi":null,"mmi":null,"Posibilidad tsunami":0,"Importancia del evento":326,"Ids":",us7000iait,","nst":46.0,"Distancia Horizontal Epicentro":2.211,"RMS":0.81,"Brecha Azimutal":77.0,"Pais":"Peru","Longitud":-80.1195,"Latitud":-8.5461,"Profundidad":27.777},{"id":"us6000ip16","Magnituud":4.2,"Place":"139 km SW of Santiago de Cao","Fecha":1663888206479,"Ultimo registro":1669496242040,"Felt":null,"cdi":null,"mmi":null,"Posibilidad tsunami":0,"Importancia del evento":271,"Ids":",us6000ip16,","nst":17.0,"Distancia Horizontal Epicentro":2.419,"RMS":0.34,"Brecha Azimutal":149.0,"Pais":"Peru","Longitud":-80.2239,"Latitud":-8.7481,"Profundidad":21.046},{"id":"us7000ia99","Magnituud":4.3,"Place":"48 km WSW of San Juan","Fecha":1663868371198,"Ultimo registro":1669496274040,"Felt":null,"cdi":null,"mmi":null,"Posibilidad tsunami":0,"Importancia del evento":284,"Ids":",us7000ia99,","nst":27.0,"Distancia Horizontal Epicentro":3.812,"RMS":0.9,"Brecha Azimutal":107.0,"Pais":"Peru","Longitud":-75.5366,"Latitud":-15.6036,"Profundidad":10.0},{"id":"us6000ip0s","Magnituud":4.0,"Place":"57 km WSW of Atico","Fecha":1663817700109,"Ultimo registro":1669496242040,"Felt":null,"cdi":null,"mmi":null,"Posibilidad tsunami":0,"Importancia del evento":246,"Ids":",us6000ip0s,","nst":19.0,"Distancia Horizontal Epicentro":4.255,"RMS":0.55,"Brecha Azimutal":148.0,"Pais":"Peru","Longitud":-74.1282,"Latitud":-16.3754,"Profundidad":35.0},{"id":"us7000ib59","Magnituud":4.4,"Place":"53 km SW of Huarmey","Fecha":1663600150913,"Ultimo registro":1669496281040,"Felt":null,"cdi":null,"mmi":null,"Posibilidad tsunami":0,"Importancia del evento":298,"Ids":",us7000ib59,","nst":38.0,"Distancia Horizontal Epicentro":2.227,"RMS":0.29,"Brecha Azimutal":128.0,"Pais":"Peru","Longitud":-78.4725,"Latitud":-10.4287,"Profundidad":66.068},{"id":"us7000i8w5","Magnituud":4.1,"Place":"33 km NNW of El Pedregal","Fecha":1663438906259,"Ultimo registro":1669496255040,"Felt":null,"cdi":null,"mmi":null,"Posibilidad tsunami":0,"Importancia del evento":259,"Ids":",us7000i8w5,","nst":14.0,"Distancia Horizontal Epicentro":3.106,"RMS":0.63,"Brecha Azimutal":141.0,"Pais":"Peru","Longitud":-72.3247,"Latitud":-16.0882,"Profundidad":90.541},{"id":"us7000i8tr","Magnituud":4.4,"Place":"47 km E of Arica","Fecha":1663411844730,"Ultimo registro":1669496253040,"Felt":null,"cdi":null,"mmi":null,"Posibilidad tsunami":0,"Importancia del evento":298,"Ids":",us7000i8tr,","nst":32.0,"Distancia Horizontal Epicentro":0.35,"RMS":0.63,"Brecha Azimutal":63.0,"Pais":"Chile","Longitud":-69.8509,"Latitud":-18.4638,"Profundidad":121.407},{"id":"us7000i8mp","Magnituud":4.5,"Place":"80 km WSW of Changuillo","Fecha":1663354535474,"Ultimo registro":1668899011040,"Felt":1.0,"cdi":2.2,"mmi":null,"Posibilidad tsunami":0,"Importancia del evento":312,"Ids":",us7000i8mp,","nst":53.0,"Distancia Horizontal Epicentro":3.13,"RMS":0.92,"Brecha Azimutal":102.0,"Pais":"Peru","Longitud":-75.8891,"Latitud":-14.995,"Profundidad":26.342},{"id":"us7000i7j4","Magnituud":4.3,"Place":"49 km S of Paracas","Fecha":1663039374783,"Ultimo registro":1668898972040,"Felt":null,"cdi":null,"mmi":null,"Posibilidad tsunami":0,"Importancia del evento":284,"Ids":",us7000i7j4,","nst":23.0,"Distancia Horizontal Epicentro":2.374,"RMS":0.61,"Brecha Azimutal":133.0,"Pais":"Peru","Longitud":-76.2825,"Latitud":-14.3125,"Profundidad":25.304},{"id":"us7000i7ae","Magnituud":4.1,"Place":"61 km WNW of Manta","Fecha":1662957003413,"Ultimo registro":1668898964040,"Felt":1.0,"cdi":2.7,"mmi":null,"Posibilidad tsunami":0,"Importancia del evento":259,"Ids":",us7000i7ae,","nst":25.0,"Distancia Horizontal Epicentro":2.464,"RMS":0.49,"Brecha Azimutal":172.0,"Pais":"Ecuador","Longitud":-81.2075,"Latitud":-0.7088,"Profundidad":10.0},{"id":"us6000iiai","Magnituud":5.4,"Place":"24 km ENE of Atico","Fecha":1662674381963,"Ultimo registro":1668539150040,"Felt":6.0,"cdi":6.9,"mmi":4.169,"Posibilidad tsunami":0,"Importancia del evento":453,"Ids":",us6000iiai,usauto6000iiai,","nst":128.0,"Distancia Horizontal Epicentro":3.677,"RMS":0.5,"Brecha Azimutal":81.0,"Pais":"Peru","Longitud":-73.4037,"Latitud":-16.131,"Profundidad":57.381},{"id":"us7000i81u","Magnituud":4.1,"Place":"17 km S of Vilca","Fecha":1662587854115,"Ultimo registro":1668539179040,"Felt":null,"cdi":null,"mmi":null,"Posibilidad tsunami":0,"Importancia del evento":259,"Ids":",us7000i81u,","nst":15.0,"Distancia Horizontal Epicentro":1.759,"RMS":1.01,"Brecha Azimutal":123.0,"Pais":"Peru","Longitud":-75.1694,"Latitud":-12.6395,"Profundidad":89.858},{"id":"us7000i5rk","Magnituud":4.1,"Place":"9 km SSE of Palora","Fecha":1662483765424,"Ultimo registro":1668539171040,"Felt":null,"cdi":null,"mmi":null,"Posibilidad tsunami":0,"Importancia del evento":259,"Ids":",us7000i5rk,","nst":24.0,"Distancia Horizontal Epicentro":0.295,"RMS":1.1,"Brecha Azimutal":145.0,"Pais":"Ecuador","Longitud":-77.925,"Latitud":-1.7724,"Profundidad":168.282},{"id":"us7000i575","Magnituud":4.5,"Place":"13 km NNE of Sapillica","Fecha":1662324724783,"Ultimo registro":1668539166040,"Felt":null,"cdi":null,"mmi":null,"Posibilidad tsunami":0,"Importancia del evento":312,"Ids":",us7000i575,","nst":16.0,"Distancia Horizontal Epicentro":1.121,"RMS":0.67,"Brecha Azimutal":161.0,"Pais":"Peru","Longitud":-79.928,"Latitud":-4.6676,"Profundidad":42.442},{"id":"us7000i4xi","Magnituud":4.6,"Place":"8 km W of Curpahuasi","Fecha":1662210152459,"Ultimo registro":1668539162040,"Felt":null,"cdi":null,"mmi":null,"Posibilidad tsunami":0,"Importancia del evento":326,"Ids":",us7000i4xi,","nst":33.0,"Distancia Horizontal Epicentro":4.487,"RMS":0.92,"Brecha Azimutal":106.0,"Pais":"Peru","Longitud":-72.7469,"Latitud":-14.0504,"Profundidad":79.037},{"id":"us7000i4fy","Magnituud":4.2,"Place":"63 km S of Atiquipa","Fecha":1662065819344,"Ultimo registro":1667709374040,"Felt":null,"cdi":null,"mmi":null,"Posibilidad tsunami":0,"Importancia del evento":271,"Ids":",us7000i4fy,","nst":23.0,"Distancia Horizontal Epicentro":4.312,"RMS":1.06,"Brecha Azimutal":104.0,"Pais":"Peru","Longitud":-74.3488,"Latitud":-16.3722,"Profundidad":35.0},{"id":"us7000i3k4","Magnituud":4.4,"Place":"3 km NNE of Tosagua","Fecha":1661819021639,"Ultimo registro":1667709470040,"Felt":1.0,"cdi":2.6,"mmi":null,"Posibilidad tsunami":0,"Importancia del evento":298,"Ids":",us7000i3k4,","nst":30.0,"Distancia Horizontal Epicentro":1.544,"RMS":1.1,"Brecha Azimutal":148.0,"Pais":"Ecuador","Longitud":-80.227,"Latitud":-0.7536,"Profundidad":42.477},{"id":"us7000i3j9","Magnituud":4.2,"Place":"central Peru","Fecha":1661808845844,"Ultimo registro":1667709472040,"Felt":null,"cdi":null,"mmi":null,"Posibilidad tsunami":0,"Importancia del evento":271,"Ids":",us7000i3j9,","nst":14.0,"Distancia Horizontal Epicentro":3.694,"RMS":0.5,"Brecha Azimutal":78.0,"Pais":null,"Longitud":-71.698,"Latitud":-14.5553,"Profundidad":109.332},{"id":"us7000i3dc","Magnituud":4.1,"Place":"61 km NW of Bah\u00eda de Car\u00e1quez","Fecha":1661784680627,"Ultimo registro":1667709480040,"Felt":null,"cdi":null,"mmi":null,"Posibilidad tsunami":0,"Importancia del evento":259,"Ids":",us7000i3dc,","nst":17.0,"Distancia Horizontal Epicentro":2.292,"RMS":0.51,"Brecha Azimutal":176.0,"Pais":"Ecuador","Longitud":-80.8831,"Latitud":-0.2875,"Profundidad":10.0},{"id":"us7000i37b","Magnituud":4.2,"Place":"11 km WNW of Yanaquihua","Fecha":1661725565325,"Ultimo registro":1667709511040,"Felt":null,"cdi":null,"mmi":null,"Posibilidad tsunami":0,"Importancia del evento":271,"Ids":",us7000i37b,","nst":31.0,"Distancia Horizontal Epicentro":3.638,"RMS":0.58,"Brecha Azimutal":123.0,"Pais":"Peru","Longitud":-72.9764,"Latitud":-15.7318,"Profundidad":79.318},{"id":"us7000i32d","Magnituud":4.0,"Place":"32 km E of Ca\u00f1averal","Fecha":1661667934811,"Ultimo registro":1667709535040,"Felt":null,"cdi":null,"mmi":null,"Posibilidad tsunami":0,"Importancia del evento":246,"Ids":",us7000i32d,","nst":21.0,"Distancia Horizontal Epicentro":0.506,"RMS":0.77,"Brecha Azimutal":182.0,"Pais":"Peru","Longitud":-80.3621,"Latitud":-3.9616,"Profundidad":49.773},{"id":"us7000i2qt","Magnituud":4.1,"Place":"17 km NNE of Vilavila","Fecha":1661531814848,"Ultimo registro":1667315661040,"Felt":null,"cdi":null,"mmi":null,"Posibilidad tsunami":0,"Importancia del evento":259,"Ids":",us7000i2qt,","nst":31.0,"Distancia Horizontal Epicentro":2.696,"RMS":0.95,"Brecha Azimutal":124.0,"Pais":"Peru","Longitud":-70.6156,"Latitud":-15.0404,"Profundidad":206.811},{"id":"us6000icj1","Magnituud":4.6,"Place":"14 km ESE of Calceta","Fecha":1661087918420,"Ultimo registro":1667315562040,"Felt":null,"cdi":null,"mmi":null,"Posibilidad tsunami":0,"Importancia del evento":326,"Ids":",us6000icj1,","nst":55.0,"Distancia Horizontal Epicentro":1.32,"RMS":0.63,"Brecha Azimutal":143.0,"Pais":"Ecuador","Longitud":-80.055,"Latitud":-0.91,"Profundidad":56.312},{"id":"us6000icif","Magnituud":5.5,"Place":"50 km NW of Bah\u00eda de Car\u00e1quez","Fecha":1661077681017,"Ultimo registro":1667315560040,"Felt":4.0,"cdi":4.1,"mmi":4.723,"Posibilidad tsunami":0,"Importancia del evento":467,"Ids":",us6000icif,usauto6000icif,pt22233000,","nst":120.0,"Distancia Horizontal Epicentro":2.103,"RMS":0.56,"Brecha Azimutal":120.0,"Pais":"Ecuador","Longitud":-80.6958,"Latitud":-0.2372,"Profundidad":13.0},{"id":"us6000icgg","Magnituud":4.1,"Place":"27 km S of Santa Luc\u00eda","Fecha":1661043039584,"Ultimo registro":1667315557040,"Felt":null,"cdi":null,"mmi":null,"Posibilidad tsunami":0,"Importancia del evento":259,"Ids":",us6000icgg,","nst":14.0,"Distancia Horizontal Epicentro":2.359,"RMS":1.18,"Brecha Azimutal":124.0,"Pais":"Peru","Longitud":-70.5588,"Latitud":-15.9402,"Profundidad":185.806},{"id":"us6000ic7m","Magnituud":4.5,"Place":"Northern Peru","Fecha":1660936012172,"Ultimo registro":1666924032040,"Felt":null,"cdi":null,"mmi":null,"Posibilidad tsunami":0,"Importancia del evento":312,"Ids":",us6000ic7m,","nst":38.0,"Distancia Horizontal Epicentro":1.908,"RMS":0.53,"Brecha Azimutal":72.0,"Pais":null,"Longitud":-74.6292,"Latitud":-7.7897,"Profundidad":156.472},{"id":"us6000ibnk","Magnituud":4.5,"Place":"47 km WNW of Bah\u00eda de Car\u00e1quez","Fecha":1660758643302,"Ultimo registro":1666924008040,"Felt":null,"cdi":null,"mmi":null,"Posibilidad tsunami":0,"Importancia del evento":312,"Ids":",us6000ibnk,","nst":74.0,"Distancia Horizontal Epicentro":2.194,"RMS":0.78,"Brecha Azimutal":84.0,"Pais":"Ecuador","Longitud":-80.7807,"Latitud":-0.3596,"Profundidad":10.0},{"id":"us6000ibis","Magnituud":4.6,"Place":"50 km WNW of Bah\u00eda de Car\u00e1quez","Fecha":1660720160410,"Ultimo registro":1666924001040,"Felt":null,"cdi":null,"mmi":null,"Posibilidad tsunami":0,"Importancia del evento":326,"Ids":",us6000ibis,","nst":70.0,"Distancia Horizontal Epicentro":2.238,"RMS":1.17,"Brecha Azimutal":85.0,"Pais":"Ecuador","Longitud":-80.8382,"Latitud":-0.4227,"Profundidad":10.0},